Name,LocationNo,Street,Town,State,Postcode,Phone,Unlead,PremiumUnlead,BPUltimate, E10, Diesel, Any_Autogas, Hours_24, Trailers, LPGBottle, Toilets, CarWash, CleanGo, SuperWash, Other, Pay, EFTPOS, GIFT_CARD, ATM, Restaurant, TruckStops, Express, BP_UltimateDiesel,Latitude,Longitude
17 Mile Service Centre,5354,Virginia Rd,Virginia,NT,835,08 8983 1511,N,Y,N,N,Y,N,N,N,N,Y,N,N,N,N,N,Y,N,N,N,N,N,N,-12.5547965,131.0291118
AA Bayswater,3015,362 - 366 Bayswater Rd,Bayswater,VIC,3153,03 9729 4574,Y,Y,Y,N,Y,Y,Y,N,Y,N,Y,Y,N,N,N,Y,Y,Y,N,N,N,N,-37.83479896,145.270183
AA Box Hill,3847,839 - 843 Whitehorse Rd,Box Hill,VIC,3128,03 9890 2086,Y,Y,Y,N,Y,Y,Y,Y,Y,Y,Y,Y,N,N,N,Y,Y,Y,N,N,N,N,-37.81686857,145.1170269
AA Box Hill South,3828,891 Canterbury Rd,Box Hill,VIC,3128,03 9899 2152,Y,Y,Y,N,Y,Y,Y,N,Y,Y,N,N,N,N,N,Y,Y,Y,N,N,N,N,-37.82866102,145.1218902
AA Braybrook,3657,277 - 281 Ballarat Rd,Braybrook,VIC,3019,03 9311 0718,Y,Y,Y,N,Y,Y,Y,Y,Y,Y,Y,Y,N,N,N,Y,Y,Y,N,N,N,N,-37.78039028,144.8562397
AA Brooklyn,3243,737 Geelong Rd,Brooklyn,VIC,3025,03 9314 4583,Y,Y,Y,N,Y,Y,Y,N,Y,Y,N,N,N,N,N,Y,Y,Y,N,Y,N,N,-37.82105587,144.834544
AA Burwood,3888,144 Burwood Hwy,Burwood,VIC,3125,03 9888 8066,Y,Y,Y,N,Y,Y,Y,N,Y,Y,N,N,N,N,N,Y,Y,Y,N,N,N,N,-37.85052637,145.1042148
AA BURWOOD EAST,3864,Cnr Blackburn Rd & Burwood Hwy,BURWOOD EAST,VIC,3151,03 9803 4904,Y,Y,Y,N,Y,Y,Y,N,Y,Y,Y,N,N,N,N,Y,Y,Y,N,N,N,N,-37.85250123,145.1520794
AA Calder Inbound,4187,1262 Calder Fwy,Calder Park,VIC,3037,03 8361 6815,Y,Y,Y,N,Y,Y,Y,N,Y,Y,N,N,N,N,N,Y,Y,Y,Y,Y,N,N,-37.66982576,144.760637
AA Calder Outbound,5450,937 Calder Fwy,Calder Park,VIC,3037,03 9390 3955,Y,Y,Y,N,Y,Y,Y,N,Y,Y,N,N,N,N,N,Y,Y,Y,Y,Y,N,N,-37.66585889,144.7482722
AA Carlton,271,117 Elgin St,Carlton,VIC,3053,03 9347 5193,Y,Y,Y,N,Y,Y,Y,N,Y,Y,N,N,N,N,N,Y,Y,N,N,N,N,N,-37.79771984,144.9707465
AA Chadstone,98,716 - 720 Warrigal Rd,Chadstone,VIC,3148,03 9568 5122,Y,Y,Y,N,Y,Y,Y,N,Y,Y,Y,Y,N,N,N,Y,Y,Y,N,N,N,N,-37.88024575,145.0908176
AA Croydon,3877,244 Mt Dandenong Rd,Croydon,VIC,3136,03 9723 4324,Y,Y,Y,N,Y,Y,Y,Y,Y,N,Y,Y,N,N,N,Y,Y,Y,N,N,N,N,-37.798989,145.2826427
AA Deer Park,3857,1001 - 1007 Western Hwy,Deer Park,VIC,3023,03 9361 2077,Y,Y,Y,N,Y,Y,Y,N,Y,Y,Y,N,N,Y,N,Y,Y,Y,Y,Y,N,N,-37.76218337,144.7525015
AA Doncaster,56,882 Doncaster Road,Doncaster East,VIC,3109,03 9848 3931,Y,Y,Y,N,Y,Y,Y,N,Y,Y,Y,N,N,N,N,Y,Y,Y,N,N,N,N,-37.79031134,145.1719782
AA Doveton,3682,60 - 64 Princes Hwy,Doveton,VIC,3177,03 9793 4405,Y,Y,Y,N,Y,Y,Y,Y,Y,Y,N,N,N,N,N,Y,Y,Y,N,N,N,N,-38.00282507,145.2486957
AA Dromana,577,1 Marine Dr,Dromana,VIC,3936,03 5981 4358,Y,Y,Y,N,Y,Y,Y,N,Y,Y,Y,Y,N,N,N,Y,Y,Y,N,N,N,N,-38.32785546,144.9747041
AA Eastlink Inbound,7325,1500 Eastlink Freeway,Scoresby,VIC,3179,(03) 9753-2924,Y,Y,Y,,Y,Y,Y,N,Y,Y,N,,,,,N,Y,Y,Y,Y,N,N,-37.89856601,145.2303636
AA Fairfield,583,490 - 500 Heidelberg Rd,Fairfield,VIC,3078,03 9489 8052,Y,Y,Y,N,Y,Y,Y,N,Y,N,N,N,N,N,N,Y,Y,Y,N,N,N,N,-37.7831058,145.0200222
AA Ferntree Gully,3882,855 BURWOOD HIGHWAY,FERNTREE GULLY,VIC,3156,03 9758 2802,Y,Y,Y,N,Y,Y,Y,Y,Y,N,N,N,N,N,N,Y,Y,Y,N,N,N,N,-37.88259247,145.2782709
AA Fitzroy,272,143 - 153 Johnston St,Fitzroy North,VIC,3065,03 9417 3385,Y,Y,Y,N,Y,Y,Y,N,Y,Y,N,N,N,N,N,Y,Y,N,N,N,N,N,-37.79828515,144.9798471
AA Gladstone Park,3112,Cnr Gladstone Park & Circular Rds,Gladstone Park,VIC,3043,03 9338 2684,Y,Y,Y,N,Y,Y,N,N,Y,N,Y,N,N,N,N,Y,Y,Y,N,N,N,N,-37.68942058,144.8862298
AA Glen Iris,574,44 - 56 High St,Glen Iris,VIC,3146,03 9885 7136,Y,Y,Y,N,Y,Y,Y,N,Y,Y,N,N,N,N,N,Y,Y,Y,N,N,N,N,-37.8620786,145.0661379
AA Heidelberg West,588,184 Bell St,West Heidelberg,VIC,3081,03 9459 6801,Y,Y,Y,N,Y,Y,Y,N,Y,Y,N,N,N,N,N,Y,Y,Y,N,N,N,N,-37.75211436,145.0494166
AA Kew East,59,1399 - 1401 Burke Rd,Kew East,VIC,3102,03 9859 0799,Y,Y,Y,N,Y,Y,Y,N,Y,Y,Y,N,N,Y,N,Y,Y,Y,N,N,N,N,-37.79493849,145.0633597
AA Kingsbury,50,925 Plenty Rd,Kingsbury,VIC,3083,03 9478 1963,Y,Y,Y,N,Y,Y,Y,Y,Y,Y,Y,Y,N,N,N,Y,Y,Y,N,N,N,N,-37.71979529,145.0367389
AA Mount Eliza,150,1386 Nepean Hwy,Mount Eliza,VIC,3930,03 9775 2188,Y,Y,Y,N,Y,Y,Y,Y,Y,Y,N,N,N,N,N,Y,Y,Y,N,N,N,N,-38.20030305,145.0826668
AA Mulgrave,3222,682 - 688 Springvale Rd,Mulgrave,VIC,3170,03 9562 1437,Y,Y,Y,N,Y,Y,Y,Y,Y,Y,Y,N,N,Y,N,Y,Y,Y,N,N,N,N,-37.91802759,145.1588862
AA Norlane,557,298 - 304 Princes Hwy,Corio,VIC,3214,03 5275 2966,Y,Y,Y,N,Y,Y,Y,N,Y,N,N,N,N,N,N,Y,Y,Y,N,N,N,N,-38.07597682,144.3688257
AA North Coburg,3806,989 Sydney Rd,Coburg,VIC,3058,03 9354 6962,Y,Y,Y,N,Y,Y,Y,Y,Y,N,N,N,N,N,N,Y,Y,Y,N,N,N,N,-37.72546759,144.9632981
AA North Fitzroy,3452,269 St Georges Road,Fitzroy North,VIC,3068,03 9481 6185,Y,Y,Y,N,Y,Y,Y,N,Y,Y,N,N,N,N,N,Y,Y,Y,N,N,N,N,-37.78201272,144.984601
AA Oakleigh,5362,162 - 168 Warrigal Rd,Oakleigh,VIC,3166,03 9579 7360,Y,Y,Y,N,Y,Y,Y,Y,Y,Y,Y,Y,N,Y,N,Y,Y,Y,N,N,N,N,-37.90814441,145.0856509
AA Officer Inbound,7010,94 Princes Hwy,Officer,VIC,3809,03 5943 2164,Y,Y,Y,N,Y,Y,Y,N,Y,Y,N,N,N,,N,Y,Y,Y,Y,Y,N,N,-38.05998862,145.4092028
AA Officer Outbound,7020,65 Princes Hwy,Officer,VIC,3809,03 5943 2099,Y,Y,Y,N,Y,Y,Y,N,Y,Y,N,N,N,,N,Y,Y,Y,Y,Y,N,N,-38.05998948,145.4092038
AA Pakenham,5439,Lot 2001 Princes Hwy,Pakenham,VIC,3066,03 59401099,Y,Y,Y,N,Y,Y,Y,Y,Y,Y,Y,Y,N,N,N,Y,y,Y,N,N,N,N,-38.06206452,145.4538682
AA Prahran,3754,500 Malvern Rd,Prahran,VIC,3181,03 9529 3887,Y,Y,Y,N,Y,Y,Y,N,Y,Y,N,N,N,N,N,Y,Y,Y,N,N,N,N,-37.84850316,145.0028313
AA Preston,3662,408 Bell St,Preston,VIC,3072,03 9484 7045,Y,Y,Y,N,Y,Y,Y,Y,Y,Y,N,N,N,N,N,Y,y,Y,N,N,N,N,-37.74433485,144.9981145
AA Reservoir,3722,35 - 37 Gisborne Cres,Reservoir,VIC,3073,03 9469 4103,Y,Y,Y,N,Y,Y,Y,N,Y,Y,Y,N,N,Y,N,Y,Y,N,N,N,N,N,-37.71838286,145.021799
AA Richmond - Church Street,274,581 Church St,Richmond,VIC,3121,03 9428 7573,Y,Y,Y,N,Y,Y,Y,N,Y,Y,N,N,N,N,N,Y,Y,Y,N,N,N,N,-37.8312236,144.9972073
AA Springvale South,141,Cnr Springvale & Clarke Rds,Springvale,VIC,3172,03 9546 8379,Y,Y,Y,N,Y,Y,Y,Y,Y,Y,N,N,N,N,N,Y,Y,Y,N,N,N,N,-37.9785054,145.1468875
AA Sunbury,28,53 - 55 Horne St,Sunbury,VIC,3429,03 9744 1973,Y,Y,Y,N,Y,Y,Y,N,Y,N,N,N,N,N,N,Y,Y,Y,N,N,N,N,-37.5806625,144.7252555
AA Sunshine,22,139 Mcintyre Rd,Sunshine,VIC,3020,03 9312 6410,Y,Y,Y,N,Y,Y,Y,Y,Y,N,Y,N,N,Y,N,Y,Y,Y,N,N,N,N,-37.76557666,144.8307072
AA Swan Street,3931,282 Swan St,Richmond,VIC,3121,03 9427 7089,Y,Y,Y,N,Y,Y,Y,N,Y,Y,Y,Y,N,N,N,Y,Y,Y,N,N,N,N,-37.82624966,145.0003025
AA Templestowe,5361,2 - 4 Union St,Lower Templestowe,VIC,3107,03 9850 8466,Y,Y,Y,N,Y,Y,Y,Y,N,Y,N,N,N,N,N,Y,Y,Y,N,N,N,N,-37.75701317,145.1136382
AA Thomastown - High Street,3240,123 High St,Thomastown,VIC,3074,03 9465 2324,Y,Y,Y,N,Y,Y,N,Y,Y,N,Y,Y,N,N,Y,Y,Y,N,N,N,N,N,-37.68283115,145.0134808
AA Thomastown - Keon Parade,3725,72 Keon Pde,Thomastown,VIC,3074,03 9460 7962,Y,Y,Y,N,Y,Y,Y,Y,Y,Y,Y,Y,N,N,N,Y,Y,Y,N,N,N,N,-37.6955127,145.0223161
AA Wallan Inbound,5908,1052 Hume Freeway,Wallan,VIC,3756,03 5783 1421,Y,Y,Y,N,Y,Y,Y,N,Y,Y,N,N,N,,N,Y,Y,Y,Y,N,N,N,-37.4036368,145.0169339
AA Wallan Outbound,5909,1015 Hume Highway,Wallan,VIC,3756,03 5783 1093,Y,Y,Y,N,Y,Y,Y,N,Y,Y,N,N,N,,N,Y,N,Y,Y,N,N,N,-37.40972951,145.0068998
AA Wantirna South,3673,444 Stud Rd,Wantirna South,VIC,3152,03 9801 5515,Y,Y,Y,Y,Y,Y,Y,N,Y,N,Y,Y,N,N,N,Y,y,Y,N,N,N,N,-37.8764046,145.2324274
Adelaide River Inn,99,106 Stuart Hwy,Adelaide River,NT,846,08 8976 7047,Y,Y,N,N,Y,Y,N,N,Y,Y,N,N,N,N,N,Y,N,Y,Y,N,N,N,-13.23817827,131.1067263
AFD Darwin,5807,5 WISHART ROAD,WISHART,NT,828,08 8984 0827,Y,Y,Y,N,Y,Y,Y,N,Y,N,N,N,N,N,N,Y,N,N,N,Y,N,N,-12.45803259,130.9246465
Alice City BP,1668,Transit Plaza,Alice Springs,NT,870,08 8952 8831,Y,Y,Y,N,Y,Y,Y,N,Y,N,N,N,N,N,N,Y,N,Y,N,N,N,N,-23.69903,133.877758
Alice Springs Depot,317,51 Stokes Street,Alice Springs,NT,870,08 8952 1131,Y,N,N,N,N,N,N,N,N,Y,N,N,N,N,Y,N,N,N,N,N,N,N,-23.69347939,133.8746715
Alice Springs Depot - Afd,8020,51 Stokes Street,Alice Springs,NT,870,08 8952 1131,N,N,N,N,Y,N,N,N,N,Y,N,N,N,N,Y,N,N,N,N,N,N,N,-23.69347912,133.8746703
Apex Service Station,416,1 Silvermines Rd,St Arnaud,VIC,3478,03 5495 1466,Y,Y,Y,N,Y,N,N,N,N,Y,Y,N,N,Y,N,Y,N,N,N,N,N,N,-36.61205153,143.2543406
Ardrossan Roadhouse,3176,2 Main Coast Rd,Ardrossan,SA,5571,08 8837 3552,Y,Y,Y,N,Y,Y,N,Y,Y,Y,N,N,N,N,N,Y,N,N,N,N,N,N,-34.41523655,137.9125372
Arnolds BP Smithton,5467,70 Goldie Street,Smithton,TAS,7330,03 6452 2592,Y,Y,Y,N,Y,N,N,Y,Y,Y,Y,Y,N,N,N,Y,N,N,N,N,N,N,-40.84252833,145.1258559
Atkinson Dam Cabin Village,8049,Atkinson Dam Road,Atkinsons Dam,QLD,4311,07 5426 4211,Y,Y,N,N,Y,N,N,N,Y,Y,N,N,N,N,N,Y,N,N,Y,N,N,N,-27.41612222,152.4396972
Ausfuel Wishart Trade Counter.,7331,5 Wishart Rd,Berrimah,NT,828,08 8984 0827,N,Y,N,,Y,,N,,,,,,,,,,,,,,N,N,-12.4580323,130.9246475
AYR DCA,5781,108 Edwards Street,AYR,QLD,4807,07 5453 8888,N,N,N,N,Y,N,Y,N,N,N,N,N,N,N,N,N,N,N,N,N,N,N,-19.57080585,147.4032688
Babinda General Store,279,177 Howard Kennedy Dr,Babinda,QLD,4861,07 4067 2332,Y,N,N,N,Y,N,N,N,N,N,N,N,N,N,N,Y,N,N,N,N,N,N,-17.33809094,145.9282586
Ballarat Truckstop,3128,1127 Latrobe St,Ballarat,VIC,3350,03 5336 2599,Y,Y,Y,N,Y,Y,Y,N,Y,Y,Y,N,N,N,N,Y,Y,Y,N,N,N,N,-37.57270798,143.8378725
Barker BP,9168,24 Adelaide Rd,Mount Barker,SA,5251,08 8398 2882,Y,Y,Y,N,N,Y,Y,N,Y,Y,N,N,N,N,N,Y,Y,Y,N,N,N,Y,-35.06685922,138.8567938
Barooga General Store,1236,37 Vermont Street,Barooga,VIC,3644,03 5873 4293,Y,Y,N,N,Y,N,N,N,Y,Y,N,N,N,N,N,Y,N,Y,N,N,N,N,-35.91209155,145.690572
Baskerville,6043,1084 Great Northern Highway,Baskerville,WA,6056,08 9123 4567,Y,Y,Y,N,Y,N,N,N,N,N,N,N,N,,N,Y,N,N,N,N,N,N,-31.79822952,116.0208264
Baskerville Depot & Dca,6651,1100 Great Northern Highway,Baskerville,WA,6056,08 9296 3396,N,N,N,N,Y,N,Y,N,N,N,N,N,N,N,Y,N,N,N,N,N,N,N,-31.79627326,116.0221727
Batchelor Service Centre,2395,338 Rumjungle Rd,Batchelor,NT,845,08 8976 0196,Y,N,N,N,Y,Y,N,Y,Y,Y,N,N,N,N,N,Y,N,Y,N,N,N,N,-13.02593853,131.0148023
Bellbay Dca,4156,Lot 10 - 12 Bellbay Rd,Bell Bay,TAS,7253,0419 384 136,Y,Y,Y,N,Y,N,Y,N,N,N,N,N,N,N,Y,N,N,N,N,N,N,N,-41.11541458,146.863558
BERRY SPRINGS CENTRE,4435,795 COX PENINSULA ROAD,BERRY SPRINGS,NT,838,08 8988-6091,Y,Y,N,N,Y,N,N,N,N,Y,N,N,N,N,N,Y,N,N,Y,N,N,N,-12.69346616,131.0235815
Bf & Dj Quade,267,77 Forbes St,Trundle,NSW,2875,02 6892 1054,Y,Y,N,N,Y,N,N,N,N,Y,N,N,N,N,N,Y,N,N,N,N,N,N,-32.92164722,147.7099932
BIGGENDEN FOOD & FUEL,5977,1 John Street,BIGGENDEN,QLD,4621,07 4127 1175,Y,,,,Y,,,,,,,,,,,,,,,,,,-25.50918528,152.0477551
Billabong Service Centre,1692,Captian Cook Hwy,Clifton Beach,QLD,4879,07 4055 3066,Y,Y,Y,N,Y,N,N,Y,N,Y,N,N,N,N,N,Y,N,Y,N,N,N,N,-16.76928308,145.6703743
Billabong Takeaway,2560,5 Forbes Street,Yeoval,NSW,2868,07 4743 2660,Y,N,N,N,Y,N,N,N,N,Y,N,N,N,N,N,Y,N,N,Y,N,N,N,-32.75171084,148.6487431
Bingara Corner Store,1802,56 Finch St,Bingara,NSW,2404,02 6724 1321,Y,Y,Y,N,Y,N,N,Y,Y,N,N,N,N,N,N,Y,N,N,N,N,N,N,-29.86765146,150.569151
Birdsville Fuel Service,694,Adelaide St,Birdsville,QLD,4482,07 4656 3236,Y,Y,N,N,Y,N,N,N,Y,N,N,N,N,N,N,Y,N,N,N,N,N,N,-25.90031301,139.3494593
Black Stump Service Station,5561,119 Binnia Street,Coolah,NSW,2843,02 6377 1215,Y,N,N,N,Y,N,N,N,Y,Y,N,N,N,N,N,Y,N,N,Y,N,N,N,-31.82735482,149.715553
Blackbird Energy Texas,5364,37 Greenup Street,TEXAS,QLD,4385,07 4653 0156,,,,,,,,,,,,,,,,,,,,,,,-28.85251779,151.1641674
Blanchetown Roadhouse,9128,Sturt Hwy,Blanchetown,SA,5357,08 8540 5060,Y,N,Y,N,Y,Y,Y,N,Y,Y,N,N,N,N,N,Y,N,Y,Y,N,N,N,-34.35029927,139.5458637
Blayney & United Sales & Service,8388,27 Orange Rd,Blayney,NSW,2799,02 6368 2233,Y,Y,N,N,Y,N,N,N,Y,Y,N,N,N,N,N,Y,N,N,N,N,N,N,-33.52710468,149.2446806
Boddington Service Station,5837,38 Bannister Road,Boddington,WA,6390,08 9883 8011,Y,N,N,N,Y,N,N,N,N,N,N,N,N,N,N,Y,N,N,N,N,N,N,-32.80232754,116.474226
BP  Wishart,4294,528 Newnham Rd,Wishart,QLD,4122,07 3343 3773,Y,Y,Y,N,N,Y,Y,Y,Y,Y,N,N,N,N,N,Y,N,Y,N,N,N,Y,-27.56138426,153.0895981
BP 2 Go North Ballarat,5441,702 Creswick Road,Ballarat,VIC,3350,03 5331 9157,Y,Y,Y,N,Y,Y,N,N,Y,Y,N,N,N,N,N,Y,Y,Y,Y,N,N,N,-37.55118487,143.8509408
BP 2Go Albion Park,2487,83 Princes Hwy,Albion Park,NSW,2527,02 4257 8000,N,Y,Y,Y,Y,Y,Y,N,Y,Y,N,N,N,N,N,Y,Y,Y,N,N,Y,N,-34.5549086,150.7905231
BP 2Go Asquith,2221,Cnr Pacific Hwy & Jersey St,Asquith,NSW,2077,02 9477 1762,N,Y,Y,Y,Y,Y,Y,N,Y,Y,N,N,N,N,N,Y,Y,Y,N,N,N,N,-33.68922939,151.1068204
BP 2Go Bankstown Airport,3510,335 Henry Lawson Drive,Bankstown,NSW,2200,02 9793 1089,N,Y,Y,Y,Y,Y,N,Y,N,Y,Y,N,Y,N,N,Y,Y,Y,N,N,N,N,-33.92004915,150.9752804
BP 2GO Brighton,138,601 Hampton St,Brighton,VIC,3186,03 9592 6582,Y,N,Y,N,N,N,Y,N,Y,Y,N,N,N,N,N,Y,Y,Y,N,N,Y,N,-37.92909069,145.0039504
BP 2Go Canterbury,9499,322 Canterbury Road,CANTERBURY,NSW,2193,02 9718 2818,N,Y,Y,Y,Y,Y,N,N,Y,Y,Y,N,Y,N,N,Y,Y,Y,N,N,N,N,-33.91496446,151.1130393
BP 2GO Carindale,1414,Corner Of Creek Road And Cuthred Street,Carindale,QLD,4152,07 3398 5155,N,Y,Y,Y,N,Y,Y,N,Y,Y,Y,N,Y,N,N,Y,Y,Y,N,N,N,Y,-27.49502465,153.1014617
BP 2GO Cranbourne,3535,Cnr High & Clarendon Sts,Cranbourne,VIC,3977,03 5996 6159,Y,N,Y,N,Y,Y,Y,Y,Y,N,N,N,N,N,N,Y,Y,Y,N,N,N,N,-38.10544936,145.28184
BP 2GO Diamond Creek,3988,274 Diamond Creek Rd,Diamond Creek,VIC,3089,03 9435 1294,Y,Y,Y,N,Y,Y,Y,Y,Y,Y,Y,N,Y,N,N,Y,Y,N,N,N,N,N,-37.68044296,145.1227492
BP 2GO Melton,3600,Cnr High & Station Sts,Melton,VIC,3337,03 9743 9517,Y,Y,Y,N,Y,Y,Y,Y,Y,N,N,N,N,N,N,Y,Y,Y,N,N,Y,N,-37.68363563,144.578013
BP 2GO Riverwood,2260,189 Belmore Rd,Riverwood,NSW,2210,02 9534 3965,N,Y,Y,Y,N,Y,N,Y,Y,N,N,N,N,N,N,Y,Y,Y,N,N,N,N,-33.95570343,151.0515202
BP 2GO Tally Ho,548,Cnr Blackburn & Highbury Rds,Tally Ho,VIC,3149,03 9803 4843,Y,Y,Y,N,Y,Y,Y,Y,Y,N,N,N,N,N,N,Y,Y,Y,N,N,N,N,-37.87728327,145.1265486
BP 2GO Virginia,1462,1830 Sandgate Road,Virginia,QLD,4014,07 3265 3088,Y,Y,Y,N,N,Y,Y,Y,Y,Y,N,N,N,N,N,Y,Y,Y,N,N,N,Y,-27.37404044,153.0620285
BP 2GO Watsonia,51,Cnr Watsonia Rd & Grace St,Watsonia,VIC,3087,03 9435 6365,Y,N,Y,N,Y,Y,Y,Y,Y,N,N,N,N,N,N,Y,Y,Y,N,N,Y,N,-37.71013798,145.0803844
BP 2GO Western Highway,345,9401 Western Hwy,Warrenheip,VIC,3352,03 5334 7821,Y,Y,Y,N,Y,Y,Y,N,N,N,N,N,N,N,N,Y,Y,N,N,N,N,N,-37.56416149,143.9332863
BP Acacia Ridge,3247,1434 Beaudesert Rd,Acacia Ridge,QLD,4110,07 3255 5199,Y,N,Y,N,Y,N,N,Y,N,Y,N,N,N,N,N,Y,N,Y,N,N,N,N,-27.58834116,153.0275726
BP Ackland Gardens,9135,62 Daws Rd,Edwardstown,SA,5039,08 8276 7639,Y,Y,Y,N,Y,Y,N,N,N,Y,N,N,N,N,N,Y,Y,Y,N,N,N,N,-34.99287958,138.5697699
BP Airds,5792,Lot 748, 56 - 60 Riverside Drive,Airds,NSW,2560,02 4628 7933,N,N,Y,Y,Y,N,N,N,Y,Y,N,N,N,N,N,Y,Y,Y,N,N,N,-34.08594534,150.8286718
BP AIRPORT BUNDABERG,6959,127 Takalvan Street,BUNDABERG,QLD,4670,07 4155 1464,Y,N,Y,N,Y,Y,N,N,Y,Y,N,N,N,,N,Y,Y,Y,Y,N,N,N,-24.89127565,152.3169338
BP Albion,1401,Albion St,Warwick,QLD,4370,07 4661 7533,Y,N,Y,N,Y,N,Y,N,Y,Y,N,N,N,N,N,Y,Y,Y,N,N,N,N,-28.21440502,152.0353842
BP Aldgate,3807,345 Mt Barker Road,Aldgate,SA,5154,08 8339 2023,Y,Y,Y,N,Y,Y,N,Y,Y,Y,N,N,N,N,N,Y,Y,Y,N,N,N,N,-35.00994322,138.7481566
BP Allambie Heights,754,Corner Of Allambie Road And Flers Street,Allambie Heights,NSW,2100,02 9451 5405,Y,Y,Y,N,Y,N,N,Y,Y,Y,N,N,N,N,N,Y,Y,N,N,N,N,N,-33.76518998,151.2492088
BP Allway Motors,1862,35 Albany Hwy,Albany,WA,6330,08 9841 5411,Y,Y,Y,N,Y,Y,N,N,Y,Y,N,N,N,N,N,Y,N,N,N,N,N,N,-35.02105886,117.8814919
BP Amberley,7336,2487 Cunningham Highway,Purga,QLD,4306,07 5467 3211,Y,Y,Y,,Y,Y,N,Y,Y,Y,N,,,,,Y,N,Y,Y,,N,N,-27.65828942,152.7089753
BP Anna Bay,5824,135 GAN GAN ROAD,ANNA BAY,NSW,2316,02 4982 2206,Y,Y,Y,N,Y,Y,N,Y,Y,Y,N,N,N,N,N,Y,Y,N,N,N,N,N,-32.77780739,152.0844349
BP Applecross,6200,848 Canning Hwy,Applecross,WA,6153,08 9364 2471,Y,Y,Y,N,N,Y,Y,Y,Y,Y,N,N,N,N,N,Y,Y,N,N,N,N,Y,-32.01467408,115.8440293
BP Aramac,8062,Barcaldine Rd,Aramac,QLD,4726,07 4651 3256,Y,Y,N,N,Y,N,N,N,N,Y,N,N,N,N,N,Y,N,N,Y,N,N,N,-22.99909948,145.2350972
BP Ararat,7346,44 Lambert Street,Ararat,VIC,3377,03 5352 5566,Y,,Y,,Y,,,,,,,,,,,,,,,,,,-37.27816431,142.9254314
BP Aratula,9968,6712 Cunningham Hwy,Aratula,QLD,4309,07 5463 8233,Y,N,Y,N,Y,Y,Y,N,Y,Y,N,N,N,N,N,Y,Y,Y,Y,N,N,N,-27.97954841,152.550241
BP Archerfield,685,Cnr Randolph St and Boundary Road,Archerfield,QLD,4108,07 3255 5522,Y,Y,Y,N,Y,Y,Y,N,N,Y,N,N,N,N,N,Y,N,Y,Y,Y,N,N,-27.56500883,152.9986852
BP Armadale,1803,3249 Albany Hwy,Armadale,WA,6112,08 9399 2204,Y,Y,Y,N,Y,Y,Y,Y,Y,Y,N,N,N,N,N,Y,Y,N,Y,N,N,N,-32.14824577,116.0203985
BP Armidale RDD,7191,84 Marsh Street,ARMIDALE,NSW,2350,02 6771 3900,Y,,Y,Y,Y,Y,N,N,Y,Y,N,N,N,,,Y,Y,Y,N,,N,N,-30.51216892,151.669399
BP Ascot,1778,Corner Of Kitchener Road And Oriel Road,Ascot,QLD,4007,07 3262 2433,Y,N,Y,N,N,N,N,Y,Y,Y,N,N,N,N,N,Y,N,N,N,N,N,Y,-27.42811357,153.0625372
BP Ashford Road & Dca,8392,313 Byron St,INVERELL,NSW,2360,02 6722 1530,Y,N,Y,N,Y,N,Y,N,Y,Y,N,N,N,N,Y,Y,N,N,N,N,N,N,-29.76779054,151.1203041
BP Ashmore,7047,Corner Of Central Park Avenue And Southport Nerang Road,Ashmore,QLD,4214,07 5597 3822,N,Y,Y,Y,N,Y,Y,Y,Y,Y,N,N,N,N,N,Y,Y,Y,N,N,N,Y,-27.98673879,153.3610579
BP Ashmore Village,7245,Cotlews & Currumburra Rd,ASHMORE,QLD,4151,07 5539 1386,Y,Y,Y,N,N,Y,N,N,Y,Y,N,N,N,,N,Y,Y,Y,N,N,N,Y,-27.50057732,153.0589149
BP Athol Park OPT,6730,17-19 Athol Street,Athol Park,SA,5012,,,,,,,,,,,,,,,,,,,,,,,,-34.85181415,138.5408397
BP Attadale,6188,Cnr Canning Hwy & Hislop Rd,Attadale,WA,6156,08 9330 2353,Y,Y,Y,N,N,Y,N,Y,Y,N,N,N,N,N,N,Y,Y,Y,N,N,N,Y,-32.03198306,115.8092778
BP Auburn,759,Cnr Parramatta Rd & Stubbs St,Auburn,NSW,2144,02 9647 1167,N,Y,Y,Y,Y,Y,Y,N,Y,Y,N,N,N,N,N,Y,Y,Y,N,N,N,N,-33.84117362,151.035579
BP Auburn Main North,6970,11 Main North Road,Auburn,SA,5451,08 8849 2130,Y,Y,N,N,Y,Y,N,N,Y,Y,N,N,N,,N,Y,Y,N,N,N,N,N,-34.02781199,138.6856404
BP Australind,1864,80 Old Coast Rd,Australind,WA,6230,08 9797 1505,Y,Y,Y,N,Y,Y,Y,Y,Y,Y,N,N,N,N,N,Y,Y,N,Y,N,N,N,-33.27913761,115.7143643
BP Avalon,761,662 - 664 Barrenjoey Rd,North Avalon,NSW,2107,02 9918 2962,N,Y,Y,Y,Y,N,N,Y,Y,Y,Y,Y,N,N,N,Y,Y,N,N,N,N,N,-33.62593368,151.3344936
BP Ayr,5708,108 Edwards Street,AYR,QLD,4807,07 4783 4308,N,Y,Y,Y,Y,N,N,N,Y,Y,N,N,N,N,N,Y,y,N,N,N,N,N,-19.57080219,147.4032685
BP Bacchus Marsh,1035,65 Grant St,Bacchus Marsh,VIC,3340,03 5367 4644,Y,Y,Y,N,Y,Y,N,N,N,N,N,N,N,N,N,Y,Y,N,N,N,N,N,-37.68449474,144.4331975
BP Bagot Road,9300,331 Bagot Rd,Nightcliff,NT,810,08 8985 2550,Y,Y,N,N,Y,N,N,N,N,Y,N,N,N,N,N,Y,N,N,N,N,N,N,-12.39507033,130.8557716
BP Bairnsdale,3289,232 - 236 Main St,Bairnsdale,VIC,3875,03 5152 3124,Y,Y,Y,N,Y,Y,Y,Y,Y,Y,N,N,N,N,N,Y,Y,Y,N,N,N,N,-37.82698249,147.6274844
BP Balaclava,3666,308 Carlisle St,Balaclava,VIC,3183,03 9527 4359,Y,Y,Y,N,N,Y,N,Y,Y,N,Y,N,Y,N,N,Y,Y,Y,N,N,N,N,-37.8688482,144.9949156
BP Balcatta,1843,53 Erindale Road,Balcatta,WA,6021,08 9240 4110,Y,Y,Y,N,Y,Y,N,N,Y,Y,N,N,N,N,N,Y,Y,Y,N,N,N,N,-31.86536188,115.8081006
BP Balladonia,6304,Eyre Hwy,Balladonia,WA,6443,08 9039 3453,Y,N,Y,N,Y,Y,N,N,N,Y,N,N,N,N,N,Y,N,N,Y,N,N,N,-32.44415205,124.0375713
BP Ballajura,6330,CORNER OF ALEXANDER DRIVE AND ILLAWARRA CRESCENT,KOONDOOLA,WA,6064,08 9248 1110,Y,Y,Y,N,Y,Y,N,Y,Y,Y,N,N,N,N,N,Y,Y,Y,N,N,N,Y,-31.84582726,115.877484
BP Ballan Travel Stop,2225,Lot 1 WESTERN FREEWAY,BALLAN,VIC,3342,03 5368 1148,Y,Y,Y,N,Y,Y,Y,N,Y,Y,N,N,N,N,N,Y,Y,Y,Y,Y,N,N,-37.58947772,144.208829
BP Balranald Dca,108,Sturt Highway,Balranald,NSW,2715,NA,Y,Y,N,N,Y,Y,Y,N,N,N,N,N,N,N,Y,Y,N,N,N,N,N,N,-34.5871173,143.4580146
Bp Bamaga Service Station,8025,Lui Street,Bamaga,QLD,4876,07 4069 3275,Y,N,N,N,Y,N,N,N,N,N,N,N,N,N,N,Y,N,N,N,N,N,N,-10.89167867,142.3951255
BP Bankstown,767,126 Chapel Road South,Bankstown,NSW,2200,02 9793 3777,N,Y,Y,Y,Y,N,Y,N,Y,N,N,N,N,N,N,Y,Y,Y,N,N,N,N,-33.92786616,151.0298189
BP Barham,8367,Moulamein Road,BARHAM,NSW,2732,03 5453 2214,Y,Y,N,N,Y,Y,N,N,Y,Y,N,N,N,N,N,Y,N,N,N,N,N,N,-35.57382677,144.1884108
BP Barolin St,5817,19 Barolin Street,Bundaberg,QLD,4670,07 4151 1522,Y,Y,Y,N,Y,Y,N,N,N,N,N,N,N,N,N,Y,Y,N,N,N,N,N,-24.87005079,152.3497659
BP Barraba,445,69 Queen St,Barraba,NSW,2347,02 6782 2046,Y,Y,N,N,Y,N,N,N,Y,Y,N,N,N,N,N,Y,Y,Y,N,N,N,N,-30.38108327,150.6092719
BP Baulkham Hills West,768,134 Seven Hills Rd,Baulkham Hills,NSW,2153,02 9624 7583,Y,Y,Y,N,Y,Y,N,Y,Y,Y,N,N,N,N,N,Y,Y,Y,Y,N,N,N,-33.76159036,150.9740381
BP Beachmere,7293,870-872 Beachmere Rd,Beachmere,QLD,4510,07 5496 2900,Y,N,Y,N,N,N,N,N,Y,N,N,N,N,,N,Y,Y,Y,N,N,N,Y,-27.12858378,153.051613
BP Beckhom Roadhouse,2565,Newell Hwy,Beckom,NSW,2665,02 6978 2329,Y,Y,N,N,Y,Y,N,N,Y,Y,N,N,N,N,Y,Y,N,N,Y,N,N,N,-34.33605556,147.0110896
BP Bedford,1244,166 Bedford Road,Andergrove,QLD,4740,07 4955 3711,N,Y,N,Y,Y,Y,N,Y,Y,Y,N,N,N,N,N,Y,Y,Y,N,N,N,N,-21.09841164,149.1815203
BP Beenleigh,7300,25-27 Logan River Road,Beenleigh,QLD,4108,07 3287 5551,Y,Y,Y,n,Y,N,N,N,n,Y,,,,,,Y,N,N,,,N,N,-27.71414973,153.190341
BP Beldon,6533,Cnr C1314Ocean Reef Rd & Eddystone Ave,Beldon,WA,6027,08 9307 7887,Y,Y,Y,Y,N,Y,Y,N,Y,Y,N,N,N,N,N,Y,Y,Y,N,N,N,Y,-31.77428904,115.7675496
BP Belfield,5656,53-57 Punchbowl road,Punchbowl,NSW,2196,02 9642 1353,N,N,Y,Y,Y,Y,N,N,Y,Y,N,N,N,N,N,Y,Y,Y,N,N,N,N,-33.92539635,151.0550666
BP Bellata RDD,7192,Newell Highway,BELLATA,NSW,2397,02 6793 7528,N,Y,Y,Y,Y,N,,N,Y,Y,N,N,N,,N,Y,Y,Y,Y,N,N,N,-29.93288112,149.7914717
BP Bellbird,8081,Nambour Connection Rd,Kulangoor,QLD,4560,07 5476 0011,Y,Y,Y,N,Y,Y,Y,N,Y,Y,N,N,N,N,N,Y,Y,Y,N,N,N,N,-26.58900904,152.9685342
BP Bellevue,6209,59 Great Eastern Hwy,Bellevue,WA,6056,08 9250 1427,Y,Y,Y,N,N,Y,Y,Y,Y,N,N,N,N,N,N,Y,Y,N,N,N,N,Y,-31.89558239,116.0315513
BP Belmont,183,77A Roslyn Rd,Belmont,VIC,3216,03 5244 2534,Y,Y,Y,N,N,N,N,Y,Y,N,N,N,N,N,N,Y,Y,Y,N,N,N,N,-38.1757103,144.3431107
BP Benowa,4194,Ashmore Road,Benowa,QLD,4217,07 5539 5060,N,Y,Y,Y,N,N,Y,Y,Y,Y,N,N,N,N,N,Y,Y,Y,N,N,N,Y,-28.00199714,153.3845457
BP Bentleigh,5994,58 Patterson Rd,Bentleigh,VIC,3204,03 9557 5326,Y,N,Y,N,Y,Y,N,N,Y,Y,Y,N,N,,N,Y,Y,Y,N,N,N,N,-37.92563187,145.0329993
BP Bentley,6344,1156 Albany Hwy,Bentley,WA,6102,08 9458 7049,Y,Y,Y,N,N,Y,Y,Y,Y,N,N,N,N,N,N,Y,Y,N,N,N,N,Y,-32.00275807,115.9201346
BP Bermagui,1067,8 Wallaga Lake Rd,Bermagui,NSW,2546,02 6493 4174,Y,Y,Y,N,Y,Y,N,Y,Y,Y,N,N,N,N,N,Y,Y,N,N,N,N,N,-36.41980656,150.0642883
BP Berri,9102,1 Vaughan Tce,Berri,SA,5343,08 8582 1740,Y,N,N,N,Y,Y,N,N,Y,Y,N,N,N,N,N,Y,Y,Y,N,N,N,N,-34.2874276,140.6022034
BP Berwick,5846,276 Clyde Road,Berwick,VIC,3806,03 9702 2611,Y,Y,Y,N,Y,Y,Y,Y,Y,Y,N,N,N,N,N,Y,Y,Y,Y,N,N,N,-38.05796872,145.3381958
BP Big Pine,3200,Cnr Nepean Hwy & Beach Street,Frankston,VIC,3199,03 9783 1031,Y,Y,Y,N,Y,Y,Y,Y,Y,N,N,N,N,N,N,Y,Y,Y,N,N,N,N,-38.14021195,145.1224994
BP Big Pineapple,4319,Pacific Hwy,West Ballina,NSW,2478,02 6686 2878,N,Y,Y,Y,Y,Y,N,N,Y,Y,N,N,N,N,N,Y,Y,N,Y,N,N,N,-28.84758331,153.5246024
BP Biggera Waters,1540,241 Brisbane Rd,Biggera Waters,QLD,4216,07 5537 8869,Y,N,Y,N,N,Y,N,N,Y,Y,N,N,N,N,N,Y,Y,Y,N,N,N,Y,-27.93099533,153.3760725
BP Biloela,1787,3 Thangoul Rd,Biloela,QLD,4715,07 4992 1370,Y,Y,N,N,Y,N,N,N,N,Y,N,N,N,N,Y,Y,N,N,N,N,N,N,-24.40122281,150.5126396
BP Black Mountain,8467,3174 New England Hwy,Black Mountain,NSW,2365,02 6775 0166,Y,Y,N,N,Y,N,Y,N,Y,Y,N,N,N,N,N,Y,N,Y,Y,N,N,N,-30.31610078,151.6892055
BP Blackall DCA,8598,8-10 Shamrock Street,Blackall,QLD,4472,07 4657 4455,Y,Y,N,,Y,Y,,,,,,,,,,,,,,,N,N,-24.42804107,145.4748703
BP Blackall DPT,6840,8 - 10 Shamrock St,Blackall,QLD,4472,07 4657 4455,Y,Y,Y,N,Y,Y,N,N,N,Y,N,N,N,N,Y,Y,Y,N,Y,N,N,N,-24.42804519,145.4748731
BP Blackall Motel,4781,153 Shamrock St,Blackall,QLD,4472,07 4657 4611,Y,N,N,N,Y,N,N,N,N,Y,N,N,N,N,N,Y,N,N,N,N,N,N,-24.42160299,145.4571562
BP Blackall Roadhouse,5057,10 Shamrock Street,Blackall,QLD,4472,07 4657 4453,Y,Y,N,N,Y,N,N,N,N,Y,N,N,N,,Y,,Y,N,N,N,N,N,-24.42804322,145.4748735
BP BLACKBURN,7350,233-243 WHITEHORSE ROAD,BLACKBURN,VIC,7350,03 9877 9599,Y,Y,Y,,Y,N,N,Y,Y,Y,N,N,N,,,Y,N,Y,,,N,N,-37.8177437,145.1629938
BP Blackwater,8050,12 Mckenzie St,Blackwater,QLD,4717,07 4982 6470,Y,Y,N,N,Y,Y,N,N,Y,Y,N,N,N,N,N,Y,Y,N,N,N,N,N,-23.5830438,148.8794012
BP Blair Athol,5058,402 - 404 Main North Rd,Blair Athol,SA,5084,08 8262 8000,Y,Y,Y,N,N,Y,Y,Y,Y,Y,Y,N,Y,N,N,Y,Y,Y,N,N,N,Y,-34.861428,138.6010651
BP Blakeview,5213,236 Main North Rd,Smithfield,SA,5114,08 8254 6078,Y,Y,Y,N,Y,Y,Y,Y,Y,Y,N,N,N,N,N,Y,Y,Y,N,N,N,N,-34.67077935,138.7027157
BP Boambee,7319,Cnr Pacific Hwy and Sawtell Rd,Boambee,NSW,2450,02 6653 1180,Y,Y,Y,N,Y,Y,N,Y,Y,Y,N,N,N,,,Y,,Y,Y,,N,N,-30.34451574,153.0692923
BP Bohle,7182,585 Ingham Road,Townsville,QLD,4818,07 4774 8300,Y,Y,Y,N,Y,Y,N,N,Y,Y,N,N,N,,N,Y,Y,Y,N,N,N,N,-19.26071131,146.7453531
BP Bolam,6751,25 - 27 Bolam St,Garbutt,QLD,4814,07 4779 1077,Y,n,Y,Y,Y,n,n,n,Y,Y,n,n,n,,n,Y,Y,n,n,n,n,n,-19.26556182,146.771088
BP Bonnyrigg,8611,Cnr Cowpasture & Nth Liverpool Rds,Bonnyrigg,NSW,2177,02 9610 0400,N,Y,Y,Y,Y,Y,N,N,Y,Y,N,N,N,N,N,Y,Y,Y,N,N,N,N,-33.89439568,150.8571518
BP Boonah,4326,43 High Street,Boonah,QLD,4310,07 5463 1566,Y,Y,N,N,Y,N,N,Y,Y,Y,N,N,N,N,N,Y,Y,N,N,N,N,N,-27.99665478,152.682032
BP Border,3229,Corner Of Ebden Street And Wodonga Place,South Albury,NSW,2640,02 6021 4325,Y,Y,Y,N,Y,Y,Y,Y,Y,Y,N,N,N,N,N,Y,Y,Y,N,N,N,N,-36.08834736,146.9091048
BP Bordertown Truck & Bus,1272,Dukes Hwy,Bordertown,SA,5268,08 8752 1997,Y,Y,Y,N,Y,Y,Y,N,Y,Y,N,N,N,N,N,Y,Y,N,Y,N,N,N,-36.31040791,140.7935552
BP Botany Bay,787,1579 Botany Rd,Botany,NSW,2019,02 9316 8148,Y,Y,Y,N,Y,Y,N,N,Y,Y,N,N,N,N,N,Y,Y,Y,N,N,N,N,-33.95278005,151.2014181
BP Bougainvillia,1960,141 Cooroy - Noosa Rd,Tewantin,QLD,4565,07 5449 0566,Y,Y,Y,N,Y,Y,N,N,Y,Y,N,N,N,N,N,Y,Y,Y,Y,N,N,N,-26.39805886,153.0156927
BP Boulder Trading Post,2508,70 Piesse St,Boulder,WA,6432,08 9093 1167,Y,N,Y,N,Y,N,N,N,Y,Y,N,N,N,N,N,Y,N,N,N,N,N,N,-30.78345627,121.4884825
BP Boulevarde,4220,Cnr of Donald St & Hornibrook Esplanade,Woody Point,QLD,4019,07 3284 5996,Y,Y,Y,N,Y,Y,Y,Y,Y,N,N,N,N,N,N,Y,Y,N,N,N,N,N,-27.25600181,153.0947871
BP Bowen Hills,7262,230 Abbotsford Road,BOWEN HILLS,QLD,4006,07 3252 3769,Y,Y,Y,,Y,Y,Y,,,,Y,,,Y,,,Y,,,,N,N,-27.43576779,153.0413787
BP Bowral,2171,202 Bong Bong St,Bowral,NSW,2576,02 4861 1608,Y,Y,Y,N,Y,N,N,Y,Y,Y,N,N,N,N,N,Y,N,N,N,N,N,N,-34.47584638,150.4189933
BP Boyne Island,1530,35 Boyne Island Road,Boyne Island,QLD,4680,07 4973 7568,Y,Y,N,N,Y,N,N,Y,Y,Y,N,N,N,N,N,Y,N,N,N,N,N,N,-23.96019002,151.3261729
BP Boyup Brook,1871,Cnr Abel St & Jayes St,Boyup Brook,WA,6244,08 9765 1123,Y,N,Y,N,Y,Y,N,N,Y,Y,N,N,N,N,N,Y,Y,N,N,N,N,N,-33.82965076,116.3841806
BP Brackenridge,7299,508 Telegraph Road and Denham Street,Brackenridge,QLD,4017,07 3269 9900,Y,Y,Y,,Y,Y,,,,,,,,,,,,,,N,N,,-27.33174126,153.0416123
BP Braddon,2239,22 Lonsdale St,Braddon,ACT,2601,02 6248 7806,Y,Y,Y,Y,Y,Y,Y,N,Y,Y,N,N,N,N,N,Y,N,Y,N,N,N,N,-35.27607834,149.1323865
BP Breakwater,3755,2 - 4 Fellmongers Rd,Breakwater,VIC,3219,03 5221 8922,Y,Y,Y,N,Y,Y,Y,N,Y,Y,Y,Y,N,N,N,Y,Y,Y,N,N,N,N,-38.17933768,144.3678981
BP Bremer Bay,6681,5 Gnombup Terrace,Bremer Bay,WA,6338,n/a,y,n,y,n,y,y,n,n,n,y,n,n,n,,n,y,n,n,n,n,n,n,-34.39879222,119.3755574
BP Bridge Garage,8071,Cunningham Hwy,GOONDIWINDI,QLD,4390,07 4671 1377,Y,N,Y,N,Y,Y,Y,N,Y,Y,N,N,N,N,N,Y,N,Y,Y,Y,N,N,-28.49497504,150.3981522
BP Bridgetown Roadhouse,5770,64 Hampton Street,Bridgetown,WA,6255,08 9725 6500,Y,N,Y,N,Y,Y,N,N,Y,Y,N,N,N,N,N,Y,y,N,N,N,N,N,-33.96223598,116.136297
BP Brighton,7091,40 Midland Highway,Brighton,TAS,7030,03 6268 1466,Y,Y,Y,N,Y,Y,Y,N,Y,Y,N,N,N,N,N,Y,Y,Y,N,N,N,N,-42.699337,147.2514653
BP Broadwater,4975,171 Pacific Hwy,Broadwater,NSW,2472,02 6682 8253,Y,N,Y,N,Y,Y,N,Y,Y,N,N,N,N,N,N,Y,Y,Y,Y,N,N,N,-29.01023301,153.4356617
BP Brooker,639,200 Brooker Hwy,Hobart,TAS,7000,03 6234 3549,Y,Y,Y,N,Y,Y,Y,N,Y,Y,N,N,N,N,N,Y,Y,Y,N,N,N,N,-42.87001395,147.3212575
BP Broome Central,6075,Cnr Frederick & Coghlan Sts,Broome,WA,6725,08 9193 5517,Y,Y,N,N,Y,Y,N,N,Y,Y,N,N,N,N,N,Y,N,Y,N,N,N,N,-17.95558568,122.2368058
BP Bruce Rock,6715,1 Johnson Street,Bruce Rock,WA,6418,08 9061 1178,y,n,n,n,y,n,y,n,n,n,n,n,n,,n,y,n,n,n,n,n,n,-31.8773019,118.1498528
BP Brunkerville,7329,1549 Leffatt Drive,Brunkerville,NSW,2323,(02) 4938 0149,Y,Y,,,Y,,,,,,,,,,,,,,,,,,-32.9421365,151.481567
BP Brunswick,5571,142 Dawson Street,Brunswick West,VIC,3055,03 9380 2267,Y,Y,Y,N,Y,Y,N,N,N,Y,N,N,N,N,N,Y,Y,N,N,N,N,N,-37.76994368,144.9495417
BP Brunswick Heads,1575,50 Tweed St,Brunswick Heads,NSW,2483,02 6685 1268,Y,Y,N,N,Y,N,N,N,Y,Y,N,N,N,N,N,Y,N,N,N,N,N,N,-28.54188407,153.5473735
BP Bruthen,4500,70 Main St,Bruthen,VIC,3885,03 5157 5262,Y,N,Y,N,Y,Y,N,Y,Y,N,N,N,N,N,N,Y,N,Y,N,N,N,N,-37.70875485,147.8339956
BP Buccaneer,6659,7 Clementson St,Buccaneer,WA,6725,08 9193 6347,Y,Y,N,N,Y,N,N,Y,Y,Y,N,N,N,N,N,Y,Y,Y,N,N,N,N,-18.9833375,122.7181415
BP Bull Creek,6521,Cnr Parry Ave & Wheatley Dr,Bull Creek,WA,6149,08 9332 5843,Y,Y,Y,N,Y,N,N,Y,Y,N,Y,N,N,N,N,Y,N,Y,N,N,N,N,-32.05665625,115.8663022
BP Bulla,5539,84 Bulla Road,Bulla,VIC,3428,03 9307 1372,Y,Y,Y,N,Y,Y,N,Y,Y,Y,N,N,N,N,N,Y,Y,N,N,N,N,N,-37.63747277,144.8054265
BP Bunbury DCA Shop Front,6669,24 Wetherly Drive,Picton,WA,6229,08 9725 6500,Y,N,Y,N,Y,N,Y,N,N,N,N,N,N,N,Y,Y,Y,Y,N,N,N,N,-33.34507914,115.7086538
BP Bundaberg Depot,1347,33 Princes St,Bundaberg,QLD,4670,07 4152 5277,Y,Y,N,N,Y,N,Y,N,N,Y,N,N,N,N,Y,Y,N,N,N,N,N,N,-24.85934647,152.3678835
BP Bundaberg Depot & Dca,4129,33 Princes St,Bundaberg,QLD,4670,07 4152 5277,N,Y,N,N,Y,N,Y,N,N,Y,N,N,N,N,Y,Y,N,N,N,N,N,N,-24.85935078,152.3678824
BP Bundanoon,2578,61 Railway Pde,BUNDANOON,NSW,2578,02 4883 6118,,,,,,,N,,,,,,,,,,,,,,N,N,-34.65538062,150.3043454
BP Bundanoon,4749,61 Railway Pde,BUNDANOON,NSW,2578,02 4883 6118,,,,,,,,,,,,,,,,,,,,,,,-34.65538195,150.3043452
BP Bundoora,7352,1050 Plenty Rd,Bundoora,VIC,3083,03 9466 9446,Y,Y,Y,N,Y,Y,N,Y,Y,Y,N,N,N,N,,,,,N,N,N,N,-37.71287851,145.0457455
BP Bungama,9245,Princes Highway,Bungama,SA,5540,08 8632 1108,Y,N,Y,N,Y,Y,N,N,Y,Y,N,N,N,N,N,Y,Y,N,Y,N,N,N,-33.19749049,138.0681523
BP Bungendore,2611,24 Molonglo St,Bungendore,NSW,2621,02 6238 1307,Y,Y,N,N,Y,N,N,N,N,N,N,N,N,N,N,Y,N,N,N,N,N,N,-35.25432524,149.4385906
BP BURMAH DURAL,35,271 New Line Rd,DURAL,NSW,2158,02 9651 5091,Y,Y,Y,N,Y,Y,N,N,Y,Y,N,N,N,,N,Y,Y,Y,N,N,N,N,-33.69803736,151.0278948
BP Burnie Terminal,7154,4 River Road,Wivenhoe,TAS,7320,03 6431 4744,N,N,N,N,Y,N,Y,N,N,N,N,N,N,,Y,N,N,N,N,N,N,N,-41.07008972,145.9251153
BP Buronga,3156,141 Sturt Highway,Gol Gol,NSW,2738,03 5022 1766,Y,Y,Y,N,Y,Y,Y,N,Y,Y,N,N,N,N,N,Y,Y,Y,Y,N,N,N,-34.18117682,142.2126629
BP Burrendah Self Serve,1812,Cnr Burrendah & Pinetree Gully Rd,Willetton,WA,6155,08 9332 1666,Y,Y,Y,N,N,N,Y,Y,Y,Y,Y,N,Y,N,N,Y,Y,N,N,N,N,Y,-32.05858213,115.8824636
BP Burrum Heads,5859,1 Ivor Drive,BURRUM HEADS,QLD,4659,,Y,Y,Y,N,Y,Y,N,N,N,N,N,N,N,N,N,Y,Y,Y,N,N,N,N,-25.18499717,152.6132374
BP Busselton,1876,24 Albert St,Busselton,WA,6280,08 9752 1509,Y,Y,Y,N,Y,N,N,N,Y,Y,N,N,N,N,N,Y,Y,N,N,N,N,N,-33.65271104,115.3441825
BP Cabramatta (Formerly BP Railway),9495,208 Cabramatta Rd,Cabramatta,NSW,2166,02 9724 9182,N,N,Y,Y,Y,N,N,N,Y,Y,Y,N,N,Y,N,Y,Y,N,N,N,N,N,-33.89593261,150.9365438
BP Caldermeade,7305,4385 South Gippsland Highway,Caldermeade,VIC,3984,03 5997 5030,Y,Y,Y,N,Y,Y,N,N,Y,Y,N,N,N,,N,Y,Y,Y,N,N,N,N,-38.24210945,145.5346576
BP Caloundra,1413,4 Latcham drive,CALOUNDRA,QLD,4551,07 5437 2264,N,,Y,Y,,,,,,,,,,,,,,,,,,,-26.79098007,153.1069198
BP Cambridge,7045,967 Cambridge Rd,Cambridge,TAS,7170,03 6248 5451,Y,Y,N,N,Y,N,N,N,Y,Y,N,N,N,N,N,Y,N,N,N,N,N,N,-42.83691447,147.4407235
BP Campbellfield,2410,1489 Sydney Rd,Campbellfield,VIC,3061,03 9357 4288,Y,Y,Y,N,Y,Y,Y,Y,Y,Y,N,N,N,,N,Y,Y,Y,N,,,,-37.68315256,144.9562512
BP Camperdown,3667,4 Thornton Street,Camperdown,VIC,3260,03 5593 1551,Y,N,Y,N,Y,Y,N,N,N,Y,N,N,N,,N,Y,Y,N,N,N,N,N,-38.22795028,143.1465359
BP Campsie,2247,65 Bexley Rd,Campsie,NSW,2194,02 9787 1801,N,Y,Y,Y,Y,N,N,N,Y,Y,N,N,N,N,N,Y,Y,N,N,N,N,N,-33.92262269,151.107037
BP Cannington,6204,Cnr Albany Hwy & Short St,Cannington,WA,6107,08 9458 1098,Y,Y,Y,N,N,Y,Y,Y,Y,N,N,N,N,N,N,Y,Y,N,N,N,N,Y,-32.02576074,115.9423629
BP Cannon Hill,4201,Corner Of Creek Road And Wynnum Road,Cannon Hill,QLD,4170,07 3899 0101,N,Y,Y,Y,Y,Y,N,Y,Y,N,N,N,N,N,N,Y,N,Y,N,N,N,N,-27.46957367,153.0962727
BP Capalaba,4208,Corner Of Old Cleveland Road And Dollery Road,Capalaba,QLD,4157,07 3390 1374,N,Y,Y,Y,N,Y,Y,Y,Y,Y,N,N,N,Y,N,Y,Y,Y,N,N,N,Y,-27.5203998,153.1920646
BP Capalaba East,7078,210 Old Cleveland Road,CAPALABA,QLD,4157,07 3823 3325,Y,Y,Y,N,N,N,N,N,Y,Y,Y,N,N,Y,N,Y,Y,Y,N,N,N,Y,-27.52139151,153.1993061
BP Capalaba South,2520,Cnr Redland Bay Rd & Neumann Rd,Capalaba,QLD,4157,07 3390 3449,Y,Y,Y,N,N,Y,Y,Y,Y,N,N,N,N,N,N,Y,Y,Y,N,N,N,Y,-27.53502946,153.2054387
BP Cardiff,804,321 Main Rd (Cnr Sturt St),Cardiff,NSW,2285,02 4954 0063,Y,Y,Y,N,Y,N,Y,N,Y,Y,N,N,N,N,N,Y,Y,N,N,N,N,N,-32.9383907,151.6573739
BP Cardiff Pennant St,7193,Cnr Pennant St & Belmore Pl,CARDIFF,NSW,2285,,Y,,Y,,Y,Y,N,,,,,,,,,,Y,,,,N,N,-32.93963558,151.6590686
BP Carlsruhe,5452,Calder Highway,Carlsruhe,VIC,3442,03 5422 1848,Y,Y,Y,N,Y,N,N,Y,Y,Y,N,N,N,N,N,Y,Y,Y,Y,N,N,N,-37.28118682,144.4797851
BP Carmila Highway,7249,1 Music Street,CARMILA,QLD,4739,07 4950 2196,Y,Y,N,N,Y,Y,N,N,Y,Y,N,N,N,,N,Y,Y,Y,Y,N,N,N,-21.90868686,149.411074
BP Carrington,2252,183 The Horsley Dr,Fairfield,NSW,2165,02 9724 3856,N,Y,Y,Y,Y,N,Y,N,Y,Y,N,N,N,N,N,Y,Y,Y,N,N,N,N,-33.86770143,150.9580214
BP Carrs Park,780,294 Princes Hwy,Blakehurst,NSW,2221,02 9546 5585,Y,Y,Y,N,Y,N,N,N,Y,N,N,N,N,N,N,Y,Y,Y,N,N,N,N,-33.98200619,151.1178164
BP Carrum Downs,14,1115 Dandenong Rd,Carrum Downs,VIC,3201,03 9782 1505,Y,Y,Y,N,Y,Y,N,Y,Y,Y,Y,N,N,Y,N,Y,Y,Y,N,N,N,N,-38.09013122,145.1802484
BP Castle Cove,809,327 Eastern Valley Way,Castle Cove,NSW,2069,02 9417 5111,Y,Y,Y,N,Y,N,N,N,Y,Y,N,N,N,N,N,Y,Y,N,N,N,N,N,-33.78483656,151.2008042
BP Casuarina Cityway,9348,Cnr Trowe Rd & Angelo St,Casuarina,NT,810,08 8927 8000,Y,Y,Y,N,Y,Y,N,N,Y,N,N,N,N,N,N,Y,Y,Y,N,N,N,N,-12.37307963,130.8835422
BP Cavendish Road,1415,Cnr Cavendish & Holland Rds,Holland Park,QLD,4121,07 3397 8333,Y,Y,Y,N,N,Y,N,Y,Y,N,N,N,N,N,N,Y,N,Y,N,N,N,Y,-27.50761216,153.0638335
BP Central Brown Plains,5435,111 - 121 Browns Plains Road,Browns Plains,QLD,4118,07 3809 3211,Y,Y,Y,N,Y,N,Y,N,Y,Y,N,N,N,N,N,Y,N,Y,N,N,N,Y,-27.66217312,153.0489479
BP Central Cairns,2271,Corner Of Martyn Street And Florence Street,Parramatta Park,QLD,4870,07 4051 1350,Y,Y,Y,N,Y,N,Y,N,Y,Y,N,N,N,N,N,Y,Y,Y,N,N,N,N,-16.92527664,145.7645212
BP Centre,2268,Cnr Kendall Rd & Yanko Rd,West Pymble,NSW,2073,02 9498 5160,N,Y,Y,Y,Y,N,N,Y,Y,N,N,N,N,N,N,Y,N,Y,N,N,N,N,-33.76417839,151.1306113
BP Centrepoint Rochedale,5731,670 Miles Platting road,Rochedale,QLD,4123,07 3341 1207,Y,Y,Y,N,N,N,N,Y,Y,Y,N,N,N,N,N,Y,Y,Y,N,N,N,Y,-27.58054336,153.1250939
BP Charlestown,6947,273 Charlestown Road,Charlestown,NSW,2290,02 4946 2603,Y,Y,Y,N,Y,N,N,N,Y,Y,N,N,N,,N,Y,Y,Y,N,N,N,N,-32.95795252,151.6898503
BP Charlton,261,Lot 1 Warrego Highway,Charlton,QLD,4350,07 4630 4115,Y,Y,Y,N,Y,y,N,N,n,Y,N,N,N,,N,Y,n,N,n,n,n,n,-27.53177869,151.8673417
BP Charlton Roadhouse,5521,91-93 High Street,Charlton,VIC,3525,03 5491 1772,Y,N,Y,N,Y,Y,N,N,Y,Y,N,N,N,N,N,Y,Y,N,N,N,N,N,-36.27090305,143.35483
BP Charmhaven,7185,210 Pacific Hwy,Charmhaven,NSW,2263,02 43932666,Y,N,Y,Y,Y,Y,N,Y,Y,Y,N,N,N,,N,N,Y,Y,N,N,N,N,-33.22730011,151.5027146
BP Charters Towers,7200,11 Hackett terrace,Richmond Hill,QLD,4820,07 4787 2100,Y,Y,Y,N,Y,Y,N,N,Y,Y,N,N,N,N,N,Y,Y,N,Y,N,N,N,-20.06270557,146.2716578
BP Chinchilla,8065,Warrego Hwy,Chinchilla,QLD,4413,07 4662 7137,Y,Y,Y,N,Y,N,N,Y,Y,Y,N,N,N,N,N,Y,Y,Y,Y,N,N,N,-26.74812218,150.6426931
BP Chinderah,1773,Chinderah Bay Dr,Chinderah,NSW,2487,02 6674 1466,N,N,Y,Y,Y,N,Y,Y,Y,Y,N,N,N,N,N,Y,N,Y,N,Y,N,N,-28.23903622,153.551298
BP Chipping Norton,7202,7-11 Newbridge Road,CHIPPING NORTON,NSW,7202,02 9601 3840,N,N,Y,Y,Y,Y,Y,N,Y,Y,N,N,N,,N,Y,Y,Y,N,N,N,N,-33.92825291,150.9768972
BP Chirnside Park,3358,Cnr Maroondah Hwy & Old Melbourne Road,Chirnside Park,VIC,3116,03 9727 1855,Y,Y,Y,N,Y,Y,Y,Y,Y,Y,N,N,N,N,N,Y,Y,Y,N,N,N,N,-37.76536614,145.3042295
BP Churchill,5420,272 Warwick Rd,Churchill,QLD,4305,07 3281 4502,Y,N,N,N,Y,N,N,N,N,Y,N,N,N,N,N,Y,Y,N,N,N,N,N,-27.64403179,152.751114
BP City Entrance Lismore,4065,2 Leycester St,Lismore,NSW,2480,02 6621 5786,Y,N,Y,N,Y,Y,N,Y,N,Y,N,N,N,N,N,Y,Y,N,N,N,N,N,-28.80478145,153.2850787
BP City Gates,4228,324 Nebo Rd,Mackay,QLD,4740,07 4952 1703,N,Y,Y,Y,Y,Y,Y,N,Y,Y,N,N,N,N,N,Y,Y,Y,N,N,N,N,-21.16577127,149.154062
BP Clare,6968,323 Main North Road,Clare,SA,5453,08 8842 2991,Y,Y,Y,n,Y,Y,n,N,Y,Y,n,n,n,,n,Y,Y,N,n,N,n,n,-33.82983761,138.6092061
BP Clayton,5423,1358 Centre Road,Clayton South,VIC,3169,03 9548 7200,Y,Y,Y,N,Y,Y,N,Y,Y,Y,N,N,N,N,N,Y,Y,Y,N,N,N,N,-37.92874177,145.1204504
BP Clayton South,6845,725 Heatherton Road,Clayton South,VIC,3169,03 9547 7733,Y,N,Y,N,Y,Y,N,N,Y,Y,N,N,N,N,N,Y,N,Y,N,N,N,N,-37.9601631,145.1358979
BP Cleveland,3155,1 - 3 Gordon St,Cleveland,QLD,4163,07 3286 1148,Y,N,Y,N,Y,N,N,N,Y,Y,N,N,N,N,N,Y,N,N,N,N,N,N,-27.52422378,153.2582256
BP Cloncurry Roadhouse,4676,5-9 Ramsay Street,CLONCURRY,QLD,4824,07 4742 2407,Y,Y,,,Y,Y,N,N,Y,Y,,,,,,Y,N,Y,Y,,,N,-20.70518921,140.5098258
BP Clontarf,5773,271 MacDonnell Road,CLONTARF,QLD,4019,07 3283 5662,N,Y,Y,N,Y,Y,Y,Y,Y,Y,N,N,N,N,N,Y,Y,Y,N,N,N,N,-27.23478964,153.0873529
BP Clybucca Truckstop,2555,Pacific Hwy,Clybucca,NSW,2440,02 6565 0125,N,Y,Y,Y,Y,Y,Y,N,Y,Y,N,N,N,N,N,Y,N,Y,Y,Y,N,N,-30.98648069,152.9375541
BP Clydebank,1149,Fitzroy & Cobra Sts,Dubbo,NSW,2830,02 6884 8545,Y,Y,Y,N,Y,Y,N,N,Y,N,N,N,N,N,N,Y,Y,Y,N,N,N,N,-32.25488685,148.6144859
BP Cocklebiddy,6320,Eyre Hwy,Cocklebiddy,WA,6443,08 9039 3462,Y,N,Y,N,Y,Y,N,N,N,Y,N,N,N,N,N,Y,Y,Y,Y,N,N,N,-32.03223578,126.0487953
BP Coffs Harbour,1124,136 Pacific Highway,Coffs Harbour,NSW,2450,02 6651 3877,N,Y,Y,Y,Y,N,N,N,Y,Y,N,N,N,N,N,Y,Y,N,N,N,N,N,-30.29162195,153.1183353
BP Colac,186,5 Murray St,Colac,VIC,3250,03 5232 1245,Y,Y,Y,N,Y,Y,Y,N,Y,Y,Y,Y,N,N,N,Y,Y,Y,N,N,N,N,-38.33939689,143.5921711
BP Colac West Dca,3921,340 Princes Hwy,Colac West,VIC,3250,03 5231 2036,Y,Y,Y,N,Y,Y,N,N,Y,N,N,N,N,N,N,Y,Y,N,N,N,N,N,-38.33473096,143.5536246
BP Colinton,3153,Dagular Hwy,Colinton,QLD,4306,07 5423 5180,Y,Y,Y,N,Y,Y,N,N,Y,Y,N,N,N,N,N,Y,N,N,Y,N,N,N,-26.94572369,152.2743998
BP College View,4148,Cnr Villis Rd & Warrego Hwy,Gatton,QLD,4343,07 5466 5218,N,Y,Y,Y,Y,Y,Y,N,Y,Y,N,N,N,N,N,Y,Y,Y,Y,N,N,N,-27.54120755,152.2958504
BP Collins Road,6508,Cnr Collins Road & Willeri Dr,Willetton,WA,6155,08 9354 2622,Y,Y,Y,N,Y,Y,Y,Y,Y,Y,N,N,N,N,N,Y,Y,N,N,N,N,N,-32.04947894,115.9040917
BP Colonial,5969,232 St Bernards Rd,HECTORVILLE,SA,5073,08 83363375,Y,Y,Y,N,N,Y,N,N,Y,Y,Y,Y,N,,N,Y,Y,N,N,N,N,Y,-34.89022998,138.6740451
BP Coly RH (Coleambally),5954,12 Kingfisher Avenue,Coleambally,NSW,2707,02 6954 4010,Y,Y,n,n,Y,n,n,n,Y,Y,n,n,n,,n,Y,n,n,Y,n,n,n,-34.8061614,145.8829715
BP Commercial Road,1421,Corner Of Commercial Road And Stratton Street,Newstead,QLD,4006,07 3252 4131,N,Y,Y,Y,N,Y,Y,N,Y,Y,N,N,N,N,N,Y,Y,Y,N,N,N,Y,-27.45300187,153.0416362
BP Condamine,5724,Lot 9 Wambo Street,Condamine,QLD,4416,07 4627 7106,N,Y,N,N,Y,N,N,N,N,Y,N,N,N,N,N,Y,N,Y,Y,N,N,N,-26.92619866,150.1334935
BP Condobolin,5642,Corner Of Molong Street And Denison Street,Condobolin,NSW,2877,02 6895 2221,Y,Y,N,N,Y,N,N,N,Y,N,N,N,N,N,N,Y,y,N,N,N,N,N,-33.08496601,147.1528836
BP CONINGSBY,7281,Bruce Highway Coningsby,MACKAY,QLD,4740,07 4959 8588,Y,Y,Y,N,Y,Y,Y,N,Y,Y,N,N,N,,N,Y,Y,Y,Y,N,N,N,-21.08990127,149.0448739
BP Connect Albany Forest,1979,Old Northern Rd & Albany Forest Dr,Albany Creek,QLD,4035,07 3264 4470,N,N,Y,Y,N,Y,Y,N,N,Y,Y,N,Y,N,N,Y,Y,Y,N,N,N,Y,-27.35739592,152.9696762
BP Connect Artarmon,2249,422 Pacific Hwy,Artarmon,NSW,2064,02 9418 7396,N,Y,Y,Y,Y,Y,Y,N,Y,Y,N,N,N,N,N,Y,Y,Y,N,N,N,N,-33.81504167,151.1781692
BP Connect Ascot,2244,Cnr Great Eastern Hwy & Resolution Drive,Belmont,WA,6104,08 9277 4758,Y,Y,Y,N,N,Y,Y,Y,Y,Y,N,N,N,N,N,Y,Y,Y,N,N,N,Y,-31.94086308,115.9274309
BP Connect Ashfield,811,580 - 586 Parramatta Rd,Croydon,NSW,2132,02 9716 4299,N,Y,Y,Y,Y,Y,Y,N,Y,Y,N,N,N,N,N,Y,Y,Y,Y,N,N,N,-33.87427013,151.1269641
BP Connect Balgowlah,2245,485 Sydney Rd,Balgowlah,NSW,2093,02 9907 9886,N,Y,Y,Y,Y,Y,Y,N,Y,Y,N,N,N,N,N,Y,Y,Y,N,N,N,N,-33.79554806,151.2558111
BP Connect Bayside Gateway,4216,cnr Nepean Hwy and North Rd,East Brighton,VIC,3187,03 9596 3288,Y,Y,Y,N,Y,Y,Y,N,Y,N,Y,N,Y,N,N,Y,Y,Y,N,N,N,N,-37.89989799,145.0064508
BP Connect Beaumauris,6103,Cnr Prendiville Dr & Marmion Ave,Ocean Reef,WA,6027,08 9300 4905,Y,Y,Y,N,N,Y,Y,Y,Y,Y,Y,N,Y,N,N,Y,Y,Y,N,N,N,Y,-31.75273272,115.7412028
BP Connect Belair,9094,1 Main St,Belair,SA,5052,08 8278 1547,Y,Y,Y,N,N,Y,Y,Y,Y,Y,Y,N,Y,N,N,Y,Y,Y,N,N,N,Y,-34.99819623,138.6229783
BP Connect Blacksoil,1463,1420 Warrego Highway,Blacksoil,QLD,4306,07 3201 8281,N,Y,Y,Y,N,Y,Y,Y,Y,Y,N,N,N,N,N,Y,Y,N,Y,N,N,Y,-27.57895396,152.7129583
BP Connect Bondi,782,185 Bondi Rd,Bondi,NSW,2026,02 9387 1448,N,Y,Y,Y,N,Y,Y,Y,Y,N,N,N,N,N,N,Y,Y,Y,N,N,N,N,-33.89432106,151.2647686
BP Connect Bowen Bridge,1410,44 Bowen Bridge Rd,Herston,QLD,4006,07 3252 4291,Y,Y,Y,N,N,Y,Y,N,Y,Y,N,N,N,N,N,Y,Y,Y,N,N,Y,Y,-27.44702079,153.0294362
BP Connect Bribie Island,786,Cnr Goodwin Dve & Hornsby Rd,Bribie Island,QLD,4507,07 3410 0211,Y,Y,Y,N,N,Y,Y,Y,Y,Y,N,N,N,N,N,Y,Y,Y,N,N,N,Y,-26.98609979,153.1325282
BP Connect Cabarita,3208,54 Marine Parade,Elwood,VIC,3184,03 9534 2435,Y,Y,Y,N,Y,Y,Y,Y,Y,Y,N,N,N,N,N,Y,Y,Y,N,N,N,N,-37.87577667,144.9769013
BP Connect Caboolture North,1672,North Bound Bound Bruce Hwy,Caboolture,QLD,4510,07 5433 0533,Y,Y,Y,N,Y,Y,Y,N,Y,Y,N,N,N,N,N,Y,Y,Y,N,Y,N,N,-27.06642221,152.9775328
BP Connect Caboolture South,1677,South Bound Bruce Hwy,Caboolture,QLD,4510,07 5433 0457,Y,Y,Y,N,Y,Y,Y,N,Y,Y,N,N,N,N,N,Y,Y,Y,Y,Y,N,N,-27.06642337,152.9775327
BP Connect Camperdown,2292,Corner Of Parramatta Road And Missenden Road,Camperdown,NSW,2050,02 9519 6330,N,Y,Y,Y,Y,N,Y,N,Y,Y,N,N,N,N,N,Y,Y,Y,Y,N,N,N,-33.88626809,151.1791201
BP Connect Caringbah,806,Cnr Captain Cook Dve & Cawarra Rd,CARINGBAH,NSW,2229,02 9540 2029,N,Y,Y,Y,Y,Y,N,Y,Y,Y,N,N,N,N,N,Y,Y,Y,N,N,N,N,-34.03275645,151.1254702
BP Connect Carlingford,2267,712  Pennant Hills Road,Carlingford,NSW,2118,02 9872 5310,N,Y,Y,Y,Y,Y,Y,N,Y,Y,N,N,N,N,N,Y,Y,Y,N,N,N,N,-33.76368482,151.0474771
BP Connect Carlisle,6218,Cnr Archer & Orrong Rd,Carlisle,WA,6101,08 9361 7210,Y,N,Y,N,N,Y,Y,N,Y,Y,Y,N,Y,N,N,Y,Y,Y,N,N,N,Y,-31.97176853,115.9188741
BP Connect Caroline Springs,4421,Corner Of Western Highway And Caroline Springs Boulevard,Caroline Springs,VIC,3023,03 8361 8401,Y,Y,Y,N,Y,Y,Y,N,N,Y,N,N,N,N,N,Y,Y,Y,N,N,N,N,-37.73952005,144.7374958
BP Connect Chatsworth,2265,115 Mamre Rd,St Marys,NSW,2760,02 9623 1019,N,Y,Y,Y,Y,Y,Y,Y,Y,N,N,N,N,N,N,Y,Y,Y,N,N,N,N,-33.7813746,150.7715215
BP Connect Chinderah,2424,68-89 Ozone Street,CHINDERAH,NSW,2487,02 6674 0896,N,Y,Y,Y,Y,Y,Y,N,Y,Y,N,N,N,N,N,Y,Y,Y,Y,Y,N,N,-28.24499503,153.5549909
BP Connect Clarendon,3759,322 City Road,Southbank,VIC,3006,03 9699 8095,Y,Y,Y,N,Y,Y,Y,N,Y,Y,Y,N,N,Y,N,Y,Y,Y,N,N,N,N,-37.82759058,144.9576328
BP Connect Coomera North,1933,Cnr Pacific Hwy & Abraham Rd,Upper Coomera,QLD,4210,07 5502 8004,Y,Y,Y,N,Y,Y,Y,N,Y,Y,N,N,N,N,N,Y,Y,Y,Y,Y,N,N,-27.90948322,153.2385709
BP Connect Corford,3276,402 - 412 Melbourne Rd,Norlane,VIC,3214,03 5278 1661,Y,Y,Y,N,Y,Y,Y,N,Y,Y,N,N,N,N,N,Y,Y,Y,N,N,N,N,-38.10193747,144.3543513
BP Connect Cronulla,821,Cnr Kingsway & Wilbar Ave,Cronulla,NSW,2230,02 95276042,N,Y,Y,Y,N,Y,Y,N,Y,Y,N,N,N,N,N,Y,Y,Y,N,N,Y,N,-34.05079412,151.1510878
BP Connect Currambine,6427,Burns Beach Rd,Currambine,WA,6028,08 9305 3222,Y,Y,Y,N,N,Y,Y,Y,Y,Y,Y,N,Y,N,N,Y,Y,Y,N,N,N,Y,-31.72340497,115.7467169
BP Connect Eagle Vale,2806,Cnr Eagle Vale Dr & Gould Rd,Eagle Vale,NSW,2558,02 9824 7146,N,Y,Y,Y,Y,Y,N,Y,Y,Y,N,N,N,N,N,Y,Y,Y,N,N,N,N,-34.03614319,150.8207758
BP Connect East Perth,5365,Corner Of East Parade And Brown Street,East Perth,WA,6004,08 9421 1280,Y,Y,Y,N,N,Y,Y,N,Y,Y,Y,N,Y,N,N,Y,Y,Y,N,N,N,Y,-31.95090111,115.8767364
BP Connect Elizabeth Vale,5204,Cnr Main North Rd & Hogarth Rd,Elizabeth Vale,SA,5112,08 8287 2444,Y,Y,Y,N,N,Y,Y,Y,Y,Y,N,N,N,Y,N,Y,Y,Y,N,N,N,Y,-34.74148302,138.676053
BP Connect Eltham,259,Cnr Main Rd & Beard St,Eltham,VIC,3095,03 9439 7213,Y,Y,Y,N,Y,Y,Y,Y,Y,Y,Y,N,Y,N,N,Y,Y,Y,N,N,Y,N,-37.70392048,145.1601147
BP Connect Ferny Grove,4251,1312 Samford Rd,Ferny Grove,QLD,4055,07 3351 4460,Y,Y,Y,N,N,Y,Y,N,Y,Y,N,N,N,N,N,Y,Y,Y,N,N,N,Y,-27.40231724,152.9372337
BP Connect Glendenning,2127,646 Richmond Rd,Glendenning,NSW,2761,02 9677 0633,N,Y,Y,Y,Y,Y,Y,Y,Y,Y,N,N,N,N,N,Y,Y,Y,Y,N,N,N,-33.73761781,150.8532274
BP Connect Glenelg,5974,66 Brighton Rd,Glenelg,SA,5045,08 8295 4447,Y,Y,Y,N,N,Y,Y,N,Y,Y,N,N,N,N,N,Y,Y,Y,N,N,N,Y,-34.98543199,138.5206425
BP Connect Glenunga,5973,303 Glen Osmond Rd,Glenunga,SA,5064,08 8379 8447,Y,Y,Y,N,N,Y,Y,N,Y,Y,N,N,N,N,N,Y,Y,Y,N,N,N,Y,-34.95257447,138.63565
BP Connect Golden Grove,5055,Cnr Helicon Dr & The Golden Way,Golden Grove,SA,5125,08 8289 0977,Y,Y,Y,N,N,Y,Y,Y,Y,Y,Y,N,Y,N,N,Y,Y,Y,N,N,N,Y,-34.79369797,138.6920865
BP Connect Hamilton,1490,126 Kingsford Smith Drive,Hamilton,QLD,4007,07 3262 5581,Y,Y,Y,N,N,Y,Y,N,Y,Y,Y,N,Y,N,N,Y,Y,Y,N,N,N,Y,-27.43940859,153.0491742
BP Connect Heatherbrae,2143,269 Pacific Hwy,Heatherbrae,NSW,2324,02 4987 4495,N,Y,Y,Y,Y,Y,Y,Y,Y,Y,N,N,N,N,N,Y,Y,Y,N,N,N,N,-32.78245083,151.7363659
BP Connect Kallangur,4227,Cnr Anzac Ave & Mcbain St,Kallangur,QLD,4503,07 3886 1025,N,Y,Y,Y,N,Y,Y,Y,Y,Y,N,N,N,N,N,Y,Y,Y,N,N,N,Y,-27.24731941,153.0069695
BP Connect Karrinyup,6210,Cnr Karrinyup Rd & Burroughs Ave,Karrinyup,WA,6018,08 9341 4999,Y,Y,Y,N,N,Y,Y,N,Y,Y,N,N,N,N,N,Y,Y,Y,N,N,N,Y,-31.87706873,115.7751733
BP Connect Kellyville,2250,19 - 21 Windsor Rd,Kellyville,NSW,2155,02 9629 4113,N,Y,Y,Y,Y,Y,Y,N,Y,Y,N,N,N,N,N,Y,Y,Y,N,N,N,N,-33.71284335,150.9588537
BP Connect Kennedy Drive,4609,Corner Of Kennedy Drive And Ducat Street,TWEED HEADS,NSW,2485,07 5536 1644,N,Y,Y,Y,Y,Y,Y,N,Y,Y,N,N,N,N,N,Y,Y,Y,N,N,N,N,-28.18628236,153.5263876
BP Connect Kingsford,9526,368 Anzac Pde,Kingsford,NSW,2032,02 9663 5372,N,Y,Y,Y,N,Y,Y,N,Y,Y,N,N,N,N,N,Y,Y,Y,N,N,N,N,-33.91970692,151.2269119
BP Connect Kwinana Hub,6178,Cnr Gilmore Ave & Chisam St,Parmelia,WA,6167,08 9419 1558,Y,Y,Y,N,Y,Y,Y,Y,Y,Y,N,N,N,N,N,Y,Y,Y,N,N,N,N,-32.24411268,115.8120924
BP Connect Labrador,4214,Corner Of Frank Street And Baker Avenue,Labrador,QLD,4215,07 5531 3281,Y,Y,Y,N,N,Y,Y,N,Y,Y,N,N,N,N,N,Y,Y,Y,N,N,N,Y,-27.94630738,153.4084972
BP Connect Loganholme,8142,4120 Pacific Motorway,LOGANHOLME,QLD,4129,07 3801 3277,N,Y,Y,Y,N,Y,N,N,N,N,N,N,N,N,N,Y,Y,Y,N,N,Y,Y,-27.79986301,153.2617794
BP Connect Macarthur,2246,Corner Of Campbelltown Road And Blaxland Road,Campbelltown North,NSW,2560,02 4628 0899,N,Y,Y,Y,Y,Y,Y,Y,Y,Y,Y,N,N,Y,N,Y,Y,Y,N,N,N,N,-34.05251701,150.8242468
BP Connect Main Street,6213,Cnr Main & Royal Sts,Osborne Park,WA,6017,08 9349 2244,Y,Y,Y,N,N,Y,Y,N,Y,Y,N,N,N,N,N,Y,Y,Y,N,N,N,Y,-31.8966187,115.8282363
BP Connect Mandurah Forum,6185,330 Pinjarra Rd,Mandurah,WA,6210,08 9581 5248,Y,Y,Y,N,N,Y,Y,N,Y,N,Y,N,Y,N,N,Y,Y,Y,Y,N,N,Y,-32.53657238,115.7412086
BP Connect Maroochy Plaza,4612,185 Maroochydore Rd,Maroochydore,QLD,4558,07 5443 8433,Y,Y,Y,N,N,Y,Y,N,Y,Y,N,N,N,N,N,Y,Y,Y,Y,N,N,Y,-26.65558663,153.0736183
BP Connect Mentone,3145,Cnr Of Boundary Road And Lower Dandenong Road,Braeside,VIC,3195,03 9587 6370,Y,Y,Y,N,Y,Y,Y,Y,Y,Y,Y,N,Y,N,N,Y,Y,Y,N,N,N,N,-37.98668096,145.1094398
BP Connect Merrimac,292,Cnr Ghilgai Rd & Gooding Dr,Merrimac,QLD,4226,07 5522 9066,Y,Y,Y,N,N,Y,Y,Y,Y,N,N,N,N,N,N,Y,Y,Y,N,N,N,Y,-28.04660117,153.3665066
BP Connect Merriwa,6601,Cnr Hester Ave & Ridgewood Blvd,Merriwa,WA,6030,08 9305 8531,Y,Y,Y,N,N,Y,Y,Y,N,Y,N,N,N,N,N,Y,Y,Y,N,N,N,Y,-31.67070842,115.7259799
BP Connect Mile End,5937,95 Henley Beach Rd,Mile End,SA,5031,08 8352 6333,Y,Y,Y,N,N,Y,Y,Y,Y,Y,Y,N,Y,N,N,Y,Y,Y,N,N,N,Y,-34.92405614,138.5692242
BP Connect Minchinbury,2209,1055 Great Western Hwy,Minchinbury,NSW,2770,02 9625 8743,N,Y,Y,Y,Y,Y,Y,Y,Y,Y,N,N,N,N,N,Y,Y,Y,N,N,Y,N,-33.78194491,150.8248569
BP Connect Mitchell Park,5936,843 Marion Rd,Mitchell Park,SA,5043,08 8276 6598,Y,Y,Y,N,N,Y,Y,Y,Y,Y,N,N,N,N,N,Y,Y,Y,N,N,N,Y,-35.00262819,138.5580626
BP Connect Morayfield,4355,249 Morayfield Rd,Morayfield,QLD,4506,07 5498 6645,N,Y,Y,Y,N,Y,Y,Y,Y,Y,N,N,N,N,N,Y,Y,Y,N,N,N,Y,-27.11083077,152.950658
BP Connect Mortdale,923,21 Boundary Rd,Mortdale,NSW,2223,02 9580 3806,N,Y,Y,Y,Y,Y,N,Y,Y,Y,N,N,N,N,N,Y,Y,Y,N,N,N,N,-33.97064826,151.0736017
BP Connect Mosman,9542,Corner Of Avenue Road And Cowles Road,Mosman,NSW,2088,02 9969 4013,N,Y,Y,Y,Y,Y,N,N,Y,N,Y,N,Y,N,N,Y,Y,Y,N,N,N,N,-33.83241397,151.2372827
BP Connect Mt Warren Park,7048,Cnr Mount Warren Park Blvd,Mount Warren Park,QLD,4207,07 3807 5132,N,Y,Y,Y,N,Y,Y,N,N,N,N,N,N,N,N,Y,Y,Y,N,N,N,Y,-27.73299298,153.1981872
BP Connect Munno Para,5310,43 - 45 Main North Rd,Smithfield,SA,5114,08 8254 6075,Y,Y,Y,N,N,Y,Y,N,Y,Y,N,N,N,N,N,Y,Y,Y,N,N,N,Y,-34.68641427,138.6914472
BP Connect Myaree,1840,246 Leach Hwy,Myaree,WA,6154,08 9317 4233,Y,Y,Y,N,N,Y,Y,N,Y,Y,Y,N,Y,N,N,Y,Y,Y,N,N,Y,Y,-32.04583977,115.8202674
BP Connect Narangba,699,Cnr Oakey Flat Road & New Settlement Rd,Narangba,QLD,4504,07 3886 7733,Y,Y,Y,N,N,Y,Y,Y,Y,N,N,N,N,N,N,Y,Y,Y,N,N,Y,Y,-27.18251687,152.9446656
BP Connect Naremburn,9544,169 Willoughby Rd,Naremburn,NSW,2065,02 9436 3990,N,Y,Y,Y,Y,N,N,N,Y,N,Y,N,Y,N,N,Y,Y,Y,N,N,N,N,-33.82000998,151.2011799
BP Connect Nookenburra,6196,386 Scarborough Beach Rd,Innaloo,WA,6018,08 9244 2322,Y,Y,Y,N,N,Y,Y,Y,Y,Y,Y,N,Y,N,N,Y,Y,Y,Y,N,N,Y,-31.90268055,115.7990421
BP Connect North Lakes,5591,1648 Anzac Avenue,North Lakes,QLD,4509,07 3385 0005,Y,Y,Y,N,N,Y,Y,N,Y,Y,N,N,N,N,N,Y,Y,Y,N,N,N,Y,-27.24171341,153.02314
BP Connect North Perth,6426,Cnr Scarborough Beach Rd & Charles St,North Perth,WA,6006,08 9443 4111,Y,Y,Y,N,N,Y,Y,N,Y,Y,N,N,N,N,N,Y,Y,Y,Y,N,N,Y,-31.92733708,115.85238
BP Connect Northpoint,5722,CNR Scanlon Drive & Cooper Street,Epping,VIC,3076,03 9401 4188,Y,Y,Y,N,N,Y,Y,N,N,Y,N,N,N,N,N,Y,Y,Y,N,N,N,N,-37.64851845,144.9947049
BP Connect Norwest,2186,2 Celebration Drive,Bella Vista,NSW,2153,02 9836 5438,N,Y,Y,Y,Y,Y,Y,N,Y,Y,N,N,N,N,N,Y,Y,Y,N,N,N,N,-33.73242862,150.9437824
BP Connect On Tor,8366,Cnr Tor St & Hursley Rd,Newtown,QLD,4350,07 4633 3999,N,Y,Y,Y,N,Y,Y,Y,Y,Y,N,N,N,N,N,Y,Y,Y,N,N,N,Y,-27.56123344,151.9278782
BP Connect Oxenford,4210,5 Old Pacific Highway,Oxenford,QLD,4210,07 5573 1239,Y,Y,Y,N,N,Y,Y,N,Y,Y,N,N,N,N,N,Y,Y,Y,N,N,N,Y,-27.89065163,153.3132422
BP Connect Padbury,6222,Cnr Marmion Ave & Warburton St,Padbury,WA,6025,08 9401 6644,Y,Y,Y,N,N,Y,Y,N,Y,Y,N,N,N,N,N,Y,Y,Y,N,N,N,Y,-31.81372273,115.7586605
BP Connect Pakenham,3859,92 - 96 Princes Hwy,Pakenham,VIC,3810,03 5940 2440,Y,Y,Y,N,Y,Y,Y,N,Y,Y,N,N,N,N,N,Y,Y,Y,N,N,Y,N,-38.0708966,145.4788332
BP Connect Palm Springs,6255,Cnr Warnbro Sound Ave & Haliburt St,Warnbro,WA,6169,08 9593 4441,Y,Y,Y,N,N,Y,Y,N,Y,Y,Y,N,Y,N,N,Y,Y,Y,N,N,N,Y,-32.33908579,115.7599881
BP Connect Palms Corner,1488,Currie Street,NAMBOUR,QLD,4560,07 5441 2312,Y,Y,Y,N,N,Y,Y,N,N,N,N,N,N,N,N,Y,Y,Y,Y,N,Y,Y,-26.62742725,152.9593008
BP Connect Paralowie,5299,Cnr Port Wakefield & Bolivar Rds,Paralowie,SA,5108,08 8281 7933,Y,Y,Y,N,N,Y,Y,Y,Y,Y,Y,N,Y,N,N,Y,Y,Y,N,N,N,Y,-34.76324547,138.5929961
BP Connect Parramatta,939,435 Church St,Parramatta,NSW,2150,02 9630 1077,N,Y,Y,Y,N,Y,Y,N,Y,Y,N,N,N,N,N,Y,Y,Y,N,N,N,N,-33.80492371,151.005608
BP Connect Phoenix,6443,Cnr Rockingham & Phoenix Rds,Spearwood,WA,6163,08 9434 5344,Y,Y,Y,N,N,Y,Y,N,Y,Y,N,N,N,N,N,Y,Y,Y,Y,N,N,Y,-32.0937188,115.7827957
BP Connect Plaza,4263,Cnr Moggill Rd & Cedarleigh Rds,Kenmore,QLD,4069,07 3878 9648,N,Y,Y,Y,N,Y,Y,N,Y,Y,N,N,N,N,N,Y,Y,Y,N,N,N,Y,-27.50740909,152.947891
BP Connect Prospect,5951,70 Prospect Rd,Prospect,SA,5082,08 8269 3500,Y,Y,Y,N,N,Y,Y,Y,Y,Y,N,N,N,N,N,Y,Y,Y,N,N,N,Y,-34.89073041,138.5942381
BP Connect Quakers Hill,2804,45 Hambledon Rd,Quakers Hill,NSW,2763,02 9837 2470,N,Y,Y,Y,Y,Y,Y,Y,Y,Y,N,N,N,N,N,Y,Y,Y,N,N,N,N,-33.71746606,150.8919849
BP Connect Regent Street,964,116 Regent St,Redfern,NSW,2016,02 9310 4717,N,Y,Y,Y,Y,Y,Y,N,Y,N,N,N,N,N,N,Y,Y,Y,N,N,N,N,-33.89366997,151.1996334
BP Connect Revesby,2404,Corner Of Milperra Road And The River Road,Revesby North,NSW,2212,02 9771 2233,N,Y,Y,Y,Y,Y,Y,N,Y,Y,N,N,N,N,N,Y,Y,Y,N,N,N,N,-33.93834067,151.0186575
BP Connect Riawena Road,1591,Cnr Riawena Road And Perrin Place,Salisbury,QLD,4107,07 3275 1654,Y,Y,Y,N,N,Y,Y,N,Y,Y,N,N,N,N,N,Y,Y,Y,N,N,Y,Y,-27.55830827,153.03049
BP Connect Riverton,6186,339 High Rd,Riverton,WA,6148,08 9354 5466,Y,Y,Y,N,N,Y,Y,N,Y,Y,Y,N,Y,N,N,Y,Y,Y,N,N,N,Y,-32.03866778,115.8975239
BP Connect Rockingham Park,6172,Challgrove St & Read St,Rockingham,WA,6168,08 9527 2092,Y,Y,Y,N,N,Y,Y,N,Y,Y,Y,N,Y,N,N,Y,Y,Y,N,N,N,Y,-32.28909712,115.7406305
BP Connect Rosehill,2644,Hassall & James Ruse Dr,Rosehill,NSW,2142,02 9689 2342,N,Y,Y,Y,Y,Y,Y,N,Y,Y,N,N,N,N,N,Y,Y,Y,N,N,N,N,-33.81936008,151.0218428
BP Connect Rozelle,9562,Corner Of Victoria Road And Evans Street,Rozelle,NSW,2039,02 9810 8494,N,Y,Y,Y,Y,Y,Y,N,Y,Y,N,N,N,N,N,Y,Y,Y,N,N,N,N,-33.86531118,151.1721578
BP connect Runway,5584,Cnr Butler Rd & General Holmes,Mascot,NSW,2019,02 8338 0873,N,Y,Y,Y,Y,Y,Y,N,Y,Y,N,N,N,N,N,Y,Y,Y,N,N,N,N,-33.94489412,151.1856957
BP Connect Salisbury,5211,105 Park Tce,Salisbury,SA,5108,08 8258 1113,Y,Y,Y,N,Y,Y,Y,Y,Y,N,N,N,N,N,N,Y,Y,Y,N,N,N,N,-34.76849365,138.6513581
BP Connect Seaview,3687,Cnr Weir St & Point Nepean Rd,Rye,VIC,3941,03 5985 5534,Y,Y,Y,N,Y,Y,Y,N,Y,Y,N,N,N,N,N,Y,Y,Y,N,N,N,N,-38.37102228,144.8280335
BP Connect Seven Hills,1037,Abbott Road,Seven Hills,NSW,2147,02 9838 0671,N,N,Y,Y,Y,Y,Y,N,Y,Y,N,N,N,N,N,Y,Y,Y,N,N,N,N,-33.76706382,150.9502202
BP Connect South Perth,6192,9 Mends St,South Perth,WA,6151,08 9368 1156,Y,Y,Y,N,N,Y,Y,N,Y,Y,Y,N,Y,N,N,Y,Y,Y,N,N,N,Y,-31.97281085,115.8518849
BP Connect Southern,9058,131 Main South Rd,Morphett Vale,SA,5162,08 8384 3366,Y,Y,Y,N,N,Y,Y,Y,Y,Y,Y,N,Y,N,N,Y,Y,Y,N,N,N,Y,-35.12428403,138.5232997
BP Connect Springwood,4239,3388 Pacific Motorway,Springwood,QLD,4127,07 3208 6481,Y,Y,Y,N,N,Y,Y,N,Y,Y,N,N,N,N,N,Y,Y,Y,N,N,N,Y,-27.63166996,153.1317638
BP Connect St Marys,2195,76 Glossop St,St Marys,NSW,2760,02 9623 0558,N,Y,Y,Y,Y,Y,Y,Y,Y,Y,N,N,N,N,N,Y,Y,Y,N,N,N,N,-33.76022297,150.7818556
BP Connect Stapylton,1937,Cnr Pacific Hwy & Stapylton - Jacobs Well Rd,Stapylton,QLD,4207,07 3807 0750,Y,Y,Y,N,Y,Y,Y,N,Y,Y,N,N,N,N,N,Y,Y,Y,N,Y,N,N,-27.7244882,153.2471456
BP Connect Sydenham,9569,339 Princes Hwy,Sydenham,NSW,2044,02 9550 3164,N,Y,Y,Y,Y,Y,Y,Y,Y,Y,Y,N,Y,N,N,Y,Y,Y,N,N,N,N,-33.91634602,151.1727955
BP Connect Thomsons Lake,5992,Cnr Beeliar Dr & North Lake Rd,Success,WA,6164,08 9498 5966,Y,Y,Y,N,N,Y,Y,N,Y,Y,N,N,N,N,N,Y,Y,Y,N,N,N,Y,-32.12809083,115.8446308
BP Connect Thornleigh,2204,Corner Of Pennant Hills Road And Parkes Street,Thornleigh,NSW,2120,02 9481 8784,N,Y,Y,Y,Y,Y,Y,N,Y,N,N,N,N,N,N,Y,Y,Y,N,N,Y,N,-33.73075112,151.0812458
BP Connect Wellington Road,6201,261 Walter Rd,Morley,WA,6062,08 9375 3699,Y,Y,Y,N,N,Y,Y,N,Y,Y,Y,N,Y,N,N,Y,Y,Y,N,N,N,Y,-31.89480368,115.8989016
BP Connect Wembley,6211,240 Cambridge St,Wembley,WA,6014,08 9381 1000,Y,Y,Y,N,N,Y,Y,N,Y,Y,Y,N,Y,Y,N,Y,Y,Y,Y,N,N,Y,-31.94057328,115.8200282
BP Connect West Coast,6203,Cnr Scarborough Beach Rd & West Coast Hwy,Scarborough,WA,6019,08 9245 3366,Y,Y,Y,N,N,Y,Y,N,Y,Y,Y,N,Y,N,N,Y,Y,Y,N,N,N,Y,-31.89443245,115.7576741
BP Connect Westbourne Park,9199,427 Goodwood Rd,Westbourne Park,SA,5041,08 8272 9918,Y,Y,Y,N,N,Y,Y,Y,Y,N,N,N,N,N,N,Y,Y,Y,N,N,N,Y,-34.97430904,138.5917661
BP Connect Wiley Park,827,24 - 42 King Georges Rd,Wiley Park,NSW,2195,02 9758 0355,N,Y,Y,Y,Y,Y,Y,N,Y,Y,N,N,N,N,N,Y,Y,Y,N,N,Y,N,-33.91895484,151.0663837
BP Connect Woodcroft,2805,Corner Of Woodcroft Drive And Richmond Road,Woodcroft,NSW,2767,02 9831 8979,N,Y,Y,Y,Y,Y,Y,N,Y,Y,Y,N,N,Y,N,Y,Y,Y,N,N,Y,N,-33.74737231,150.8798418
BP Connect Woollahra,1029,39 Vernon St,Woollahra,NSW,2025,02 9369 2289,N,Y,Y,Y,N,N,N,N,Y,Y,N,N,N,N,N,Y,Y,Y,N,N,N,N,-33.88997503,151.2473869
BP ConnectThe Tulla,1684,Cnr Centre Rd & Melbourne Dr,Melbourne Airport,VIC,3045,03 9310 4622,Y,Y,Y,N,Y,Y,Y,N,N,Y,N,N,N,N,N,Y,Y,Y,N,N,N,N,-37.67447698,144.8456264
BP Coolongolook,6396,Pacific Highway,Coolongolook,NSW,2423,02 4997 7230,Y,N,N,N,Y,Y,N,N,Y,Y,N,N,N,,N,Y,N,Y,Y,N,N,N,-32.21495219,152.32287
BP Coolum Beach,1584,54 Beach Rd,Coolum Beach,QLD,4573,07 5473 9099,Y,Y,Y,N,N,N,N,N,Y,Y,N,N,N,N,N,Y,Y,Y,N,N,N,Y,-26.53280064,153.090404
BP Coonalpyn,9056,1 Dukes Hwy,Coonalpyn,SA,5265,08 8571 1233,Y,Y,Y,N,Y,Y,N,N,Y,Y,N,N,N,N,N,Y,Y,Y,Y,N,N,N,-35.6411267,139.8390531
BP Cooroy Supermart,346,28 Elm St,Cooroy,QLD,4563,07 5447 6375,Y,Y,Y,N,N,Y,N,N,Y,N,N,N,N,N,N,Y,Y,Y,N,N,N,Y,-26.41843657,152.9119111
BP Coraki,5639,104 Queen Elizabeth Drive,Coraki,NSW,2471,02 6683 2074,Y,Y,N,N,Y,N,N,N,Y,N,N,N,N,N,N,Y,N,N,N,N,N,N,-28.98288699,153.2835825
BP Cornwall,4280,Cnr Cornwall St & Cleveland St,Greenslopes,QLD,4120,07 3397 5029,Y,N,Y,N,N,Y,N,N,Y,N,N,N,N,N,N,Y,Y,Y,N,N,N,Y,-27.50270177,153.0458393
BP Corryong,5593,21 Towong Road,CORRYONG,VIC,3707,02 6076-1151,Y,Y,N,N,Y,N,N,N,Y,Y,N,N,N,N,N,Y,Y,N,N,N,N,N,-36.1931338,147.9092449
BP Coutts Crossing Store,1576,9 Armidale Rd,Grafton,NSW,2460,02 6649 3205,Y,Y,N,N,Y,N,N,N,Y,Y,N,N,N,N,N,Y,N,Y,Y,N,N,N,-29.82821534,152.8917087
BP Crafers,9125,3 Main St,Crafers,SA,5152,08 8339 1746,Y,Y,Y,N,N,Y,N,Y,Y,Y,N,N,N,N,N,Y,Y,Y,N,N,N,Y,-34.99715515,138.7039292
BP Craigieburn,5414,72 Hanson Road,Craigieburn,VIC,3064,03 93081817,Y,Y,Y,N,Y,Y,N,Y,Y,Y,N,N,N,N,N,Y,Y,Y,N,N,N,N,-37.59234841,144.9373961
BP Crossroads,2216,Cnr Hume Hwy & Pine Ave,Casula,NSW,2170,02 9602 8394,N,Y,Y,Y,Y,Y,Y,N,Y,Y,Y,N,Y,N,N,Y,Y,N,N,N,N,N,-33.95520989,150.8958275
BP Crystal Brook,6334,Lot 78 Crystal Brook Road And Gladys Road,Lesmurdie,WA,6076,08 9291 6381,Y,N,Y,N,N,Y,N,Y,Y,Y,N,N,N,N,N,Y,N,Y,N,N,N,Y,-32.00550722,116.0408725
BP Crystal Brook Eyre Rd,6967,68 Eyre Road,Crystal Brook,SA,5523,08 8636 2222,Y,Y,N,N,Y,Y,N,Y,Y,Y,N,N,N,,N,Y,Y,Y,N,N,N,N,-33.34980698,138.2057956
BP Cunnamulla,1427,10 Emma Street,Cunnamulla,QLD,4490,07 4655 1179,Y,Y,N,N,Y,N,N,N,Y,Y,N,N,N,N,N,Y,N,Y,Y,N,N,N,-28.0678387,145.6851503
BP Dalby,1429,Cnr Drayton & Pratten St,Dalby,QLD,4405,07 4662 2938,Y,N,Y,N,Y,Y,Y,N,Y,Y,N,N,N,N,N,Y,Y,Y,N,N,N,N,-27.18048168,151.2603126
BP Dalrymple,1430,76 Pilkington St,Garbutt,QLD,4814,07 4779 2119,Y,Y,N,N,Y,N,N,N,Y,N,N,N,N,N,N,Y,Y,Y,N,N,N,N,-19.27423958,146.7669015
BP Dandenong,3940,Cnr Princes Highway & Potter St,Dandenong,VIC,3175,03 9792 3796,Y,Y,Y,N,Y,Y,N,Y,Y,Y,N,N,N,N,N,Y,Y,Y,N,N,N,N,-37.97824096,145.2070674
BP Dandenong Truckstop,5982,175-187 Greens Road,Dandenong,VIC,3175,03 9792 0664,Y,Y,Y,,Y,Y,N,,,,,,,,,,,,,Y,N,N,-38.01254487,145.2044928
BP Darling Street,9561,551 Darling St,Rozelle,NSW,2039,02 9555 8348,N,Y,Y,Y,Y,N,N,Y,Y,Y,Y,Y,N,N,N,Y,Y,N,N,N,N,N,-33.85917133,151.1717203
BP Darwin City,4116,89 Smith St,Darwin,NT,800,08 8947 2330,Y,Y,Y,N,Y,Y,Y,N,N,Y,N,N,N,N,N,Y,Y,N,N,N,N,N,-12.4596206,130.8373391
BP Davies Road,5567,9 DAVIES ROAD,PADSTOW,NSW,2211,02 9774 4331,N,Y,Y,Y,Y,N,Y,N,Y,Y,Y,N,N,Y,N,Y,Y,Y,N,N,N,N,-33.94722903,151.0371434
BP Daylesford,3502,143 Vincent St,Daylesford,VIC,3460,03 5348 3804,Y,Y,Y,N,Y,Y,N,N,Y,Y,N,N,N,N,N,Y,Y,N,N,N,N,N,-37.3476835,144.1425081
BP Deception Bay,4160,555 Deception Bay Rd,Deception Bay,QLD,4508,07 3203 2423,Y,Y,Y,N,Y,N,N,Y,Y,N,N,N,N,N,N,Y,N,Y,N,N,N,N,-27.19434285,153.0268793
BP Del Park,7318,1 Del Park Rd,North Dandalup,WA,6207,08 9530 1229,Y,,Y,,Y,Y,,,,,,,,,,Y,,,,,n,,-32.52188783,115.970646
BP Deniliquin,348,Cnr Hardinge & Sloane Sts,Deniliquin,NSW,2710,03 5881 2411,Y,N,Y,N,Y,Y,N,N,Y,Y,N,N,N,N,N,Y,Y,N,Y,N,N,N,-35.53248187,144.9524854
BP Denistone East,5748,295 Quarry Road,Ryde,NSW,2112,02 9807 1449,N,Y,Y,Y,Y,N,N,N,Y,N,N,N,N,N,N,Y,Y,Y,N,N,N,N,-33.79580769,151.1029178
BP Denmark,6660,14 High St,Denmark,WA,6333,08 9848 2700,Y,N,Y,N,Y,Y,N,N,Y,Y,N,N,N,N,N,Y,Y,N,N,N,N,N,-34.96186799,117.3561726
BP Depot - Warrnambool,3141,17 Albert Street,Warrnambool,VIC,3280,03 5562 2604,Y,Y,N,N,Y,N,Y,N,N,N,N,N,N,N,Y,N,N,N,N,N,N,N,-38.3719161,142.4592123
BP Depot Gladstone,7286,69 Hanson Road,GLADSTONE,QLD,4680,07 4976 6500,Y,Y,N,,Y,,N,,N,,,,,,,,Y,,,,N,N,-23.84101805,151.2457822
BP Depot Oudenryn,1978,45 Boolcrrol Rd,Wee Waa,NSW,2388,02 6795 4076,Y,Y,N,N,Y,N,N,N,Y,Y,N,N,N,N,N,Y,N,N,N,N,N,N,-30.2240762,149.4328009
BP Desert Palms,2478,203 Beira Rd,Laverton,WA,6440,08 9031 1210,Y,N,Y,N,Y,N,N,N,N,Y,N,N,N,N,Y,Y,N,Y,N,N,N,N,-28.62568925,122.4069729
BP Dog Swamp,6234,Lot 12 Wanneroo Rd,Yokine,WA,6060,08 9444 6990,Y,N,N,N,N,Y,N,Y,Y,N,Y,Y,N,N,N,Y,Y,Y,N,N,N,Y,-31.90900557,115.8448877
BP Donald,421,104 Wood St,Donald,VIC,3480,03 5497 1150,Y,Y,Y,N,Y,Y,N,N,Y,Y,N,N,N,N,Y,Y,Y,N,N,N,N,N,-36.37184967,142.9828329
BP Donald (VIC),5931,104 Woods Street,Donald,VIC,3840,03 5497 1150,Y,N,Y,N,Y,Y,N,N,Y,Y,N,N,N,,N,Y,N,N,N,N,N,N,-36.37185195,142.9828356
BP Dongara,6350,85 Brand Hwy,Dongara,WA,6525,08 9927 1077,Y,N,Y,N,Y,Y,N,N,Y,Y,N,N,N,N,N,Y,N,N,Y,N,N,N,-29.25197397,114.9440618
BP Donnybrook,6438,16 South West Hwy,Donnybrook,WA,6239,08 9731 1897,Y,N,Y,N,Y,Y,N,N,N,Y,Y,N,N,Y,N,N,N,N,N,N,N,N,-33.57881753,115.8279817
BP Dover,7063,1 Station Rd,Dover,TAS,7117,03 6298 1102,Y,Y,N,N,Y,N,N,Y,Y,Y,Y,Y,N,N,N,Y,N,N,N,N,N,N,-43.31204174,147.0161342
BP Drayton,4691,36 - 38 Brisbane St,Drayton,QLD,4350,07 4630 1715,Y,N,Y,N,Y,N,N,N,Y,Y,N,N,N,N,Y,Y,Y,Y,N,N,N,N,-27.60064592,151.9153636
BP Duaringa Truckstop,4334,Capricorn Hwy,Duaringa,QLD,4702,07 4935 7129,Y,Y,N,N,Y,N,Y,N,Y,Y,N,N,N,N,N,Y,N,N,Y,N,N,N,-23.71407177,149.6056427
BP Dublin,6966,Lot 7 Port Wakefield Rd,Dublin,SA,5501,08 8529 2400,Y,Y,Y,n,Y,Y,n,Y,Y,Y,n,n,n,,n,Y,Y,n,n,n,n,n,-34.45354286,138.353526
BP Dunsborough,5464,Cnr Naturaliste Tce And Dunn Bay Road,Dunsborough,WA,6281,08 9725 6500,Y,Y,Y,N,Y,Y,N,N,Y,Y,N,N,N,N,N,Y,Y,Y,N,N,N,N,-33.61662195,115.1022713
BP Dural,831,582 Old Northern Rd,Dural,NSW,2158,02 9651 2321,N,Y,Y,Y,Y,N,N,Y,Y,Y,N,N,N,N,N,Y,Y,N,N,N,N,N,-33.69583874,151.0289364
BP Dysart,1659,Cnr Hannah Cres & Garnham Drive,DYSART,QLD,4745,07 4950 0462,n,n,Y,N,N,N,N,,N,,N,N,N,,,,,,,,N,n,-22.58872241,148.3423042
BP Eaglehawk,5454,11 Peg Leg Road,Eaglehawk,VIC,3556,03 5446 1982,Y,Y,Y,N,Y,N,N,Y,Y,Y,N,N,N,N,N,Y,N,Y,N,N,N,N,-36.71779311,144.2513916
BP East,612,161 Tartleton St,East Devonport,TAS,7310,03 6427 8711,Y,Y,Y,N,Y,N,N,Y,Y,Y,N,N,N,N,N,Y,N,N,N,N,N,N,-41.18514682,146.3721176
BP East Ballan Travelstop,6844,Bences Lane,Ballan,VIC,3342,03 5368 1899,Y,Y,Y,N,Y,Y,Y,N,Y,Y,N,N,N,N,N,Y,Y,Y,Y,Y,N,N,-37.5886611,144.2516995
BP East Doncaster,3491,300 Blackburn Rd,Doncaster East,VIC,3108,03 9841 9355,Y,Y,Y,N,Y,Y,N,Y,Y,Y,N,N,N,N,N,Y,Y,Y,N,N,N,N,-37.78077841,145.1636577
BP East End,1289,46 Clarinda St,Parkes,NSW,2870,07 5438 1636,Y,Y,N,N,Y,N,N,Y,Y,Y,N,N,N,N,N,Y,Y,Y,N,N,N,N,-33.14236871,148.1845939
BP East Geelong,5445,369 Portarlington Road,Moolap,VIC,3221,03 52484977,Y,Y,Y,N,Y,Y,Y,N,Y,Y,N,N,N,N,N,Y,Y,N,N,N,N,N,-38.16848269,144.425393
BP East Malvern,3916,101 Waverley Rd (Cnr Burke Rd),Malvern East,VIC,3145,03 9571 0972,Y,Y,Y,N,Y,Y,N,N,Y,Y,N,N,N,N,N,Y,Y,Y,N,N,N,N,-37.87596305,145.0481825
BP East Prahran,82,549 High St,Prahran,VIC,3181,03 9510 5934,Y,Y,Y,N,N,Y,Y,Y,Y,Y,Y,N,Y,N,N,Y,Y,Y,N,N,N,N,-37.85364763,145.0067737
BP East Toowoomba,1506,Cnr Bridge St & Mary St,Toowoomba,QLD,4350,07 4632 6790,Y,N,Y,N,Y,N,N,N,Y,Y,N,N,N,N,N,Y,Y,Y,N,N,N,N,-27.55348733,151.9676362
BP Eastern Heights,1432,Robertson & Grange Rds,Eastern Heights,QLD,4305,07 3281 3044,Y,Y,Y,N,Y,Y,N,Y,Y,Y,N,N,N,N,N,Y,Y,Y,N,N,N,N,-27.62833318,152.7780488
BP Edgecliffe,7256,67 New South Head Road,EDGECLIFF,NSW,2027,02 9363 4553,N,Y,Y,Y,Y,N,Y,N,Y,N,N,N,N,N,N,Y,Y,Y,N,N,N,N,-33.87706018,151.2316437
BP Edinburgh Castle,4262,411 Gympie Rd,Kedron,QLD,4031,07 3359 1641,N,Y,Y,Y,N,Y,Y,Y,Y,N,Y,N,Y,N,N,Y,Y,N,N,N,N,Y,-27.40218391,153.0317672
BP Edithvale,3935,Cnr Station St & Lochiel Ave,Edithvale,VIC,3196,03 9772 3603,Y,Y,Y,N,Y,Y,N,Y,Y,Y,N,N,N,N,N,Y,Y,Y,N,N,N,N,-38.03418309,145.1064401
BP Edmonton,5498,167 Bruce Highway,Edmonton,QLD,4869,07 4055 4899,Y,Y,N,N,Y,N,N,N,Y,N,N,N,N,N,N,Y,N,Y,N,N,N,N,-17.01757756,145.7441363
BP Elanora,5750,Cnr Guineas Creek Road and Casuarina Drive,Elanora,QLD,4221,07 5533 9643,Y,Y,Y,N,N,N,N,N,Y,Y,N,N,N,,N,Y,Y,Y,N,N,N,Y,-28.13762439,153.4403913
BP Elliott,7304,3 Lewis St,Elliot,NT,862,08 8969 2025,Y,Y,N,N,Y,Y,N,N,N,Y,N,N,N,,N,Y,N,N,Y,N,N,N,-17.55381514,133.544238
BP Elmore,5455,1 Margaret Street,Elmore,VIC,3558,03 5432 6429,Y,Y,Y,N,Y,Y,N,N,Y,Y,N,N,N,N,N,Y,N,Y,Y,N,N,N,-36.49800255,144.6105199
BP Emerald,1434,Cnr Clermont & Ruby St,Emerald,QLD,4720,07 4982 1609,N,Y,Y,Y,Y,Y,Y,N,Y,Y,N,N,N,N,N,Y,Y,Y,N,N,N,N,-23.52133192,148.1600967
BP Empire Bay (DSS),7362,276 Empire Bay Drive,Empire Bay,NSW,2257,02 4369 8760,Y,Y,Y,,Y,Y,N,Y,Y,Y,Y,N,N,Y,,Y,,Y,,,,N,-33.50327555,151.3630913
BP Energy Fuel Laverton,3911,42-44 Little Boundary Rd,LAVERTON NORTH,VIC,3026,03 9314 0999,Y,Y,Y,N,Y,Y,Y,N,Y,N,Y,N,N,N,N,Y,Y,Y,Y,Y,N,N,-37.81606118,144.8176381
BP Enfield,5586,184 Liverpool Road,Enfield,NSW,2136,02 9747 8177,N,N,Y,Y,Y,N,N,N,Y,Y,Y,Y,N,N,N,Y,Y,Y,N,N,N,N,-33.88702724,151.0979032
BP Engadine,837,963 Old Princes Hwy,Engadine,NSW,2233,02 9520 8640,Y,Y,Y,N,Y,N,N,N,Y,N,N,N,N,N,N,Y,Y,N,N,N,N,N,-34.06454401,151.0167213
BP Epping,7333,31 Bridge St,Epping,NSW,2121,02 9869 1233,N,Y,Y,Y,Y,N,N,N,N,N,N,N,N,N,N,Y,N,N,N,N,N,N,-33.77437874,151.0790659
BP Epsom,16,Cnr Midland Hwy & Taylor Sts,Epsom,VIC,3551,03 5448 4394,Y,Y,Y,N,Y,Y,Y,N,Y,Y,N,N,N,N,N,Y,N,Y,N,N,N,N,-36.7174548,144.3134003
BP Eromanga,4166,Webber Street,Eromanga,QLD,4480,07 4656 4881,Y,Y,N,N,Y,N,Y,N,N,Y,N,N,N,N,N,Y,N,N,N,N,N,N,-26.6683328,143.2669681
BP Erskinville,9509,Cnr Erskinville Rd & Union St,Erskinville,NSW,2043,02 9557 5427,N,Y,Y,Y,Y,Y,N,N,N,N,N,N,N,N,N,Y,Y,N,N,N,N,N,-33.89896222,151.1825396
BP ETON VALE,341,13649 New England Hwy,Cambooya,QLD,4358,07 46961200,Y,Y,Y,N,Y,Y,N,N,Y,Y,N,N,N,,N,Y,N,Y,Y,N,N,N,-27.71534116,151.9131576
BP Euroa,3052,29 Taracombe St,Euroa,VIC,3666,03 5795 3677,Y,Y,Y,N,Y,Y,N,N,Y,Y,N,N,N,N,N,Y,Y,Y,Y,N,N,N,-36.75006241,145.5778112
BP Express Aitkenvale,1400,273 Ross River Rd,Aitkenvale,QLD,4814,07 4779 7855,Y,Y,Y,N,Y,Y,Y,N,Y,Y,N,N,N,N,N,Y,Y,Y,N,N,Y,N,-19.29673571,146.7679376
BP Express Ashgrove,4215,109 Stewart Rd,Ashgrove,QLD,4060,07 3366 5449,Y,Y,Y,N,N,Y,Y,N,Y,Y,Y,N,N,Y,N,Y,Y,Y,N,N,Y,Y,-27.43918364,152.9901403
BP Express Aspley,1404,1316 Gympie Rd,Aspley,QLD,4034,07 3263 8131,N,Y,Y,Y,N,Y,Y,Y,Y,Y,Y,N,N,Y,N,Y,Y,Y,N,N,Y,Y,-27.36529502,153.0165804
BP Express Beresfield,1231,2 John Renshaw Dr,Beresfield,NSW,2322,02 4964 4555,N,Y,Y,Y,Y,Y,Y,N,Y,Y,N,N,N,N,N,Y,N,Y,Y,Y,Y,N,-32.81134879,151.6420513
BP Express Bexley,9489,610 Forest Rd,Bexley,NSW,2207,02 9587 9502,N,Y,Y,Y,Y,N,N,N,Y,N,N,N,N,N,N,Y,Y,Y,N,N,Y,N,-33.957447,151.1182974
BP Express Casula,810,Cnr Graeme Ave & Hume Hwy,Casula,NSW,2170,02 9601 1665,N,N,Y,Y,Y,N,Y,N,Y,Y,N,N,N,N,N,Y,Y,Y,N,N,Y,N,-33.94065006,150.9122804
BP Express Chisholm,2909,3 Benham St,Chisholm,ACT,2905,02 6292 3791,N,Y,Y,Y,Y,Y,Y,N,Y,Y,Y,N,N,Y,N,Y,Y,Y,N,N,Y,N,-35.41295128,149.1279455
BP Express Condell Park,817,Cnr Lancelot & Edgar Sts,Condell Park,NSW,2200,02 9709 3363,Y,Y,Y,N,Y,Y,Y,N,Y,N,N,N,N,N,N,Y,N,Y,N,N,Y,N,-33.91588703,151.0134908
BP Express Croydon Park,1397,236 - 240 Georges River Rd,Croydon Park,NSW,2133,02 9799 2645,N,Y,Y,Y,Y,N,N,Y,Y,N,N,N,N,N,N,Y,Y,Y,N,N,Y,N,-33.89640751,151.1052946
BP Express Dundas,830,Corner Of Quarry Road And Kissing Point Road,Dundas,NSW,2117,02 9638 7085,N,Y,Y,Y,Y,Y,Y,N,Y,Y,Y,Y,N,N,N,Y,Y,Y,N,N,Y,N,-33.79930294,151.054024
BP Express Eight Mile Plains,8094,Warrigal & Padstow Rds,Eight Mile Plains,QLD,4113,07 3341 3143,N,N,Y,Y,N,Y,N,N,N,N,Y,N,Y,N,N,Y,Y,Y,N,N,Y,Y,-27.57530785,153.0876916
BP Express Engadine,9508,1234 Old Princess Hwy,Engadine,NSW,2233,02 9520 9322,N,Y,Y,Y,Y,Y,Y,N,Y,N,N,N,N,N,N,Y,Y,Y,N,N,Y,N,-34.07477913,151.0111259
BP Express Frankston,157,298 Frankston - Dandenong Rd,Seaford,VIC,3199,03 9786 8411,Y,Y,Y,N,Y,Y,Y,Y,Y,N,Y,N,N,Y,N,Y,Y,Y,N,N,Y,N,-38.12706655,145.1362533
BP Express Glenquarie,2272,Cnr Harold St & Victoria Rd,Macquarie Fields,NSW,2564,02 9618 2685,N,Y,Y,Y,Y,Y,Y,N,Y,Y,Y,Y,N,N,N,Y,Y,Y,N,N,Y,N,-33.98479413,150.8933276
BP Express Golf Links Road,8567,1 Golf Links Road,Frankston,VIC,3199,03 9783 4446,Y,Y,Y,N,Y,Y,Y,Y,Y,Y,Y,N,Y,N,N,Y,Y,Y,N,N,Y,N,-38.16414548,145.1373828
BP Express Goodna (closed until early 2012),8108,237 Brisbane Rd,Goodna,QLD,4300,07 3818 0511,N,Y,Y,N,Y,Y,Y,Y,Y,Y,N,N,N,N,N,Y,Y,Y,N,N,Y,N,-27.60975512,152.9019146
BP Express Gymea,860,Corner Of Kingsway  And Gymea Bay Road,Gymea,NSW,2227,02 9524 5015,N,Y,Y,Y,Y,N,Y,N,Y,N,N,N,N,N,N,Y,Y,Y,N,N,Y,N,-34.03261019,151.0855415
BP Express Hornsby,2226,Corner Of George Street And Burdett Street,Hornsby,NSW,2077,02 9477 3892,N,Y,Y,Y,Y,Y,Y,N,Y,Y,Y,N,Y,N,N,Y,Y,Y,N,N,Y,N,-33.70237983,151.0992948
BP Express Kingston,2217,77 Canberra Ave,Kingston,ACT,2604,02 6295 6021,Y,N,Y,Y,Y,Y,Y,N,Y,Y,Y,N,Y,N,N,Y,Y,Y,N,N,Y,N,-35.3275681,149.1566626
BP Express Lane Cove,2212,58 Epping Road,Lane Cove,NSW,2066,02 9427 1091,Y,Y,Y,N,Y,Y,Y,Y,Y,Y,N,N,N,N,N,Y,Y,Y,N,N,Y,N,-33.81118214,151.1642662
BP Express Magill Road,5952,257 Magill Rd,Trinity Gardens,SA,5068,08 8431 1066,Y,N,Y,N,N,Y,N,N,N,N,N,N,N,N,N,Y,Y,Y,N,N,Y,Y,-34.91442454,138.6408312
BP Express Marulan Northbound,2330,Hume Highway,Marulan,NSW,2579,02 48411822,N,Y,Y,Y,Y,Y,Y,N,N,Y,N,N,N,N,N,Y,N,Y,Y,Y,N,N,-34.71874879,149.9979916
BP EXPRESS MARULAN SOUTHBOUND,2328,Hume Highway,Marulan,NSW,2579,02 4841 1877,N,Y,Y,Y,Y,Y,Y,N,N,Y,N,N,N,N,N,Y,Y,Y,Y,Y,Y,N,-34.71874866,149.9979934
BP Express Merrylands,919,Corner Of Kenyons Road And Sherwood Road,Merrylands West,NSW,2160,02 9632 7912,N,Y,Y,Y,Y,N,Y,N,Y,N,N,N,N,N,N,Y,N,Y,N,N,Y,N,-33.83716653,150.967989
BP Express Modbury,9132,931 North East Rd,Modbury,SA,5092,08 8396 3511,Y,Y,Y,N,Y,Y,Y,Y,Y,Y,Y,N,Y,Y,N,Y,Y,Y,N,N,Y,N,-34.8341249,138.6819699
BP Express Mona Vale,921,1721 Pittwater Rd,Mona Vale,NSW,2103,02 9979 5893,N,Y,Y,Y,Y,Y,Y,N,Y,Y,N,N,N,N,N,Y,Y,Y,N,N,Y,N,-33.6804146,151.3024634
BP Express Mosman,926,175 Ourimbah Rd,Mosman,NSW,2088,02 9953 3760,N,Y,Y,Y,N,N,N,N,Y,N,N,N,N,N,N,Y,Y,Y,N,N,Y,N,-33.82123848,151.2332218
BP Express Northwood,2199,7 - 9 Northwood Rd,Northwood,NSW,2066,02 9427 4692,N,Y,Y,Y,N,N,N,N,Y,N,N,N,N,N,N,Y,N,Y,N,N,Y,N,-33.82446245,151.1726628
BP Express O'Halloran Hill,9009,131 South Rd,O'Halloran Hill,SA,5158,08 8381 2558,Y,Y,Y,N,Y,Y,Y,Y,Y,Y,N,N,N,N,N,Y,N,Y,N,N,Y,N,-35.01922914,138.567115
BP Express Peninsula,9540,Cnr Barrenjoey & Darley Rds,Mona Vale,NSW,2103,02 9999 4633,N,Y,Y,Y,N,Y,Y,N,Y,Y,N,N,N,N,N,Y,Y,Y,N,N,Y,N,-33.67653852,151.3082765
BP Express Penrith,945,Cnr Castlereagh Rd & Coreen Ave,Penrith,NSW,2750,02 4721 3400,N,Y,Y,Y,Y,Y,Y,Y,Y,Y,N,N,N,N,N,Y,Y,Y,N,N,Y,N,-33.74603449,150.7022601
BP Express Phillip,2222,166 Melrose Dr,Phillip,ACT,2606,02 6281 2633,Y,N,Y,Y,Y,Y,Y,Y,Y,Y,N,N,N,N,N,Y,Y,Y,N,N,Y,N,-35.35082484,149.0851407
BP Express Pymble,957,Cnr Bannockburn Rd & Pacific Hwy,Pymble,NSW,2073,02 9983 9873,Y,Y,Y,N,Y,Y,N,N,Y,Y,N,N,N,N,N,Y,Y,Y,N,N,Y,N,-33.74099342,151.1381254
BP Express Rose Bay,970,595 Old South Head Rd,Rose Bay,NSW,2029,02 9371 6613,Y,Y,Y,N,N,N,N,N,Y,N,N,N,N,N,N,Y,Y,Y,N,N,Y,N,-33.86935866,151.2771703
BP Express Rydalmere,976,Cnr Victoria Rd & Clyde St,Rydalmere,NSW,2116,02 9684 4998,N,Y,Y,Y,Y,Y,Y,Y,Y,Y,Y,N,Y,N,N,Y,Y,Y,N,N,Y,N,-33.81072661,151.0332853
BP Express St Lucia,4278,Cnr Brisbane St & Benson Sts,St Lucia,QLD,4067,07 3870 3805,N,Y,Y,Y,N,Y,Y,Y,Y,Y,Y,N,N,Y,N,Y,Y,Y,N,N,N,Y,-27.48775549,152.9930503
BP Express St Peters,2210,2 Princes Hwy,St Peters,NSW,2044,02 9557 2504,N,Y,Y,Y,Y,Y,Y,N,Y,N,N,N,N,N,N,Y,Y,Y,N,N,Y,N,-33.90982475,151.1809083
BP Express Toronto,2235,Corner Of Carey Street And Donnelly Avenue,Toronto,NSW,2283,02 4959 1397,N,Y,Y,Y,Y,Y,Y,N,N,Y,N,N,N,N,N,Y,Y,Y,N,N,Y,N,-33.01109542,151.5936206
BP Express Tower,1025,500 Willoughby Road,Willoughby,NSW,2068,02 9958 2194,Y,Y,Y,N,Y,N,N,Y,Y,Y,N,N,N,N,N,Y,Y,Y,N,N,N,N,-33.81016291,151.1992721
BP Express Tuggerah,1002,100 Pacific Hwy,Tuggerah,NSW,2259,02 4352 1584,N,Y,Y,Y,Y,Y,Y,N,Y,Y,Y,N,Y,N,N,Y,Y,Y,N,N,Y,N,-33.30577869,151.4198121
BP Express Valentine,1010,855 Macquarie Dr,Valentine,NSW,2280,02 4946 8084,N,Y,Y,Y,Y,Y,Y,N,Y,Y,N,N,N,N,N,Y,Y,Y,N,N,Y,N,-33.00800963,151.6425826
BP Express Warwick Farm,2233,Cnr Hume Hwy & Forbes St,Warwick Farm,NSW,2170,02 9601 2588,N,Y,Y,Y,Y,Y,Y,Y,Y,Y,N,N,N,N,N,Y,Y,Y,N,N,Y,N,-33.9139281,150.9311895
BP Express West Ryde,2241,1233 Victoria Rd,West Ryde,NSW,2114,02 9804 6504,N,Y,Y,Y,Y,Y,Y,N,Y,Y,N,N,N,N,N,Y,Y,Y,N,N,Y,N,-33.80667575,151.0709583
BP Express Willoughby,1026,316 Penhurst St,Willoughby,NSW,2068,02 9417 6713,N,Y,Y,Y,N,N,Y,N,Y,N,N,N,N,N,N,Y,Y,Y,N,N,Y,N,-33.7937747,151.1958682
BP Express Wyoming,2255,481 Pacific Hwy,Wyoming,NSW,2250,02 4329 7562,N,Y,Y,Y,Y,Y,Y,Y,Y,N,N,N,N,N,N,Y,Y,Y,N,N,Y,N,-33.40777726,151.3508847
BP Fairfield,6945,Cnr Sackville and Hamilton Streets,Fairfield,NSW,2165,02 9728 6717,Y,Y,Y,Y,Y,N,N,N,Y,Y,N,N,N,,N,Y,Y,N,N,N,N,N,-33.87292389,150.9454742
BP Fairy Meadow,6037,224 Princess Highway,Fairy meadows,NSW,2519,02 4227 4944,Y,Y,Y,N,Y,Y,Y,N,Y,Y,Y,N,N,Y,N,Y,N,Y,Y,N,n,n,-34.40343839,150.8916663
BP Fannie Bay,9301,88 Ross Smith Ave,Fannie Bay,NT,820,08 89817330,Y,N,N,N,Y,N,Y,Y,Y,Y,N,N,N,N,N,Y,Y,Y,N,N,N,N,-12.42478328,130.8389434
BP Fawkner,52,1210 Sydney Rd,Fawkner,VIC,3060,03 9359 4588,Y,Y,Y,N,Y,Y,Y,N,N,Y,N,N,N,N,N,Y,Y,N,N,N,N,N,-37.70687333,144.9614
BP Fernhill,3226,Cnr Stephensons & Ferntree Gully Rds,Mount Waverley,VIC,3149,03 9544 8563,Y,Y,Y,N,Y,Y,Y,N,Y,Y,Y,N,N,Y,N,Y,Y,Y,N,N,N,N,-37.89909787,145.1243446
BP Ferry Street,1436,71 Ferry St,Maryborough,QLD,4650,07 41213699,N,Y,Y,Y,Y,Y,N,N,Y,Y,N,N,N,N,N,Y,N,Y,N,N,N,N,-25.53893198,152.6931315
BP Finley,484,255 Murray St,Finley,NSW,2713,03 5883 3458,Y,N,Y,N,Y,Y,N,N,Y,Y,N,N,N,N,N,Y,Y,N,N,N,N,N,-35.64548259,145.574902
BP Fish Creek,6988,3 Falls Rd,Fish Creek,VIC,3953,03 5683 2521,Y,Y,Y,N,Y,N,N,N,Y,Y,N,N,N,,N,Y,N,Y,N,N,N,N,-38.69258132,146.0830961
BP Fitzroy,9196,20A Main North Rd,Thorngate,SA,5082,08 8344 9595,Y,Y,Y,N,N,Y,Y,Y,Y,Y,N,N,N,N,N,Y,Y,Y,N,N,N,Y,-34.89633931,138.5995991
BP Flores Road,6437,Cnr Flores Rd & Fourth St,Wonthella,WA,6530,08 99211290,Y,N,Y,N,Y,N,N,N,N,Y,N,N,N,,N,Y,N,N,N,N,N,N,-28.76398074,114.6338188
BP Forbes,1159,Cnr Johnson & Dowling Sts,Forbes,NSW,2871,02 6852 2245,Y,Y,Y,N,Y,Y,N,N,Y,Y,Y,N,N,Y,N,Y,Y,Y,N,N,N,N,-33.38197741,148.0102487
BP Forest Glen,1556,Mons Rd,Forest Glen,QLD,4556,07 5445 3477,N,Y,Y,Y,Y,Y,Y,Y,Y,N,N,N,N,N,N,Y,Y,Y,N,N,N,N,-26.68846554,153.0111914
BP Forestville,2227,632 Warringah Rd,Forestville,NSW,2087,02 9451 4165,N,Y,Y,Y,Y,Y,N,N,Y,N,N,N,N,N,N,Y,Y,N,N,N,N,N,-33.76001328,151.2143896
BP Forrestfield,1828,Cnr Hale & Hartfield Rds,Forrestfield,WA,6058,08 9359 4503,Y,Y,Y,N,N,Y,N,N,N,Y,N,Y,N,N,N,Y,N,Y,N,N,N,Y,-31.98923183,116.0097846
BP FORSTER,7261,86-88 McIntosh Street,FORSTER,NSW,2428,02 6555 7252,Y,N,Y,Y,Y,Y,N,Y,Y,Y,N,N,N,,N,Y,Y,N,N,N,N,N,-32.19092849,152.5158537
BP Fortescue,6323,51 North West Coastal Highway,Sherlock,WA,6714,08 9184 5126,Y,N,Y,N,Y,N,N,N,N,Y,N,N,N,N,N,Y,N,N,N,N,N,N,-20.77912004,117.9054048
BP Foster,6987,94 Main St,Foster,VIC,3960,03 5682 2008,Y,Y,Y,n,Y,Y,n,n,Y,Y,n,n,n,,n,Y,Y,n,n,n,n,n,-38.65219658,146.2034791
BP Frankston South,7257,38 Frankson-Flinders Road,FRANKSTON SOUTH,VIC,3199,03 9769 6533,Y,Y,Y,N,Y,Y,N,,N,N,N,N,N,,N,N,Y,N,N,N,N,N,-38.15519476,145.1336319
BP Fyshwick,7075,2 Ipswich Street,Fyshwick,ACT,2609,02 6280 6881,Y,Y,Y,Y,Y,Y,Y,N,Y,Y,N,N,N,N,N,Y,N,Y,N,N,N,N,-35.33007363,149.162737
BP GAMBIER WEST,7344,12 Crouch Street South,Mount Gambier,SA,5290,08 8723 2033,Y,Y,Y,N,Y,Y,N,N,N,Y,Y,N,N,Y,N,Y,Y,Y,N,N,N,N,-37.83150764,140.7852467
BP Gateshead,5516,66-68 Oxford Street,Gateshead,NSW,2290,02 4943 2902,Y,Y,Y,N,Y,N,N,N,Y,Y,N,N,N,N,N,Y,Y,N,N,N,N,N,-32.97836302,151.6835798
BP Gateway Port Macquarie,5549,Cnr Pacific Highway And Oxley Hwy,Port Macquarie,NSW,2446,02 6581 1325,Y,Y,Y,N,Y,Y,Y,N,Y,Y,N,N,N,N,N,Y,Y,Y,N,N,N,N,-31.42670942,152.3565185
BP Gatton,1548,277 Gatton - Helidon Rd,Gatton,QLD,4343,07 5462 1452,Y,Y,Y,N,Y,N,N,N,N,Y,N,N,N,N,N,Y,Y,N,N,N,N,N,-27.55528536,152.289406
BP Gawler,5922,22 Murray St,Gawler,SA,5118,08 8522 2554,Y,N,Y,N,N,Y,N,Y,Y,Y,N,N,N,N,N,Y,Y,Y,N,N,N,Y,-34.60180532,138.7492606
BP Geebung,1442,Corner Of Newman Road And Lauren Street,Geebung,QLD,4034,07 3265 6763,Y,Y,Y,N,Y,N,N,Y,Y,N,N,N,N,N,N,Y,Y,N,N,N,N,N,-27.37895003,153.0460595
BP General Store,1975,Cnr Bruxner Hwy & Lindendale Rd,Wollongbar,NSW,2477,02 6628 1240,Y,Y,Y,N,Y,Y,N,N,N,N,N,N,N,N,N,Y,Y,N,N,N,N,N,-28.815107,153.4031924
BP Gidgegannup,6144,2095 Toodyay Road,Gidgegannup,WA,6083,08 9574 6171,Y,N,Y,N,Y,Y,N,N,Y,Y,N,N,N,N,N,Y,N,Y,Y,N,N,N,-31.79292546,116.1939351
BP Gilgandra,728,84 Miller Street,Gilgandra,NSW,2827,n/a,y,y,n,n,y,y,n,n,n,y,n,n,n,,n,y,n,n,n,n,n,n,-31.70888858,148.6715763
BP Gin Gin,6957,6 Mulgrave Street,Gin Gin,QLD,4671,07 4157 2265,Y,Y,Y,N,Y,Y,Y,N,Y,Y,N,N,N,,N,Y,Y,Y,Y,N,N,N,-24.98685001,151.9534304
BP GLADSTONE AIRPORT,5573,Dawson Highway,West Gladstone,QLD,4680,07 4978 3579,Y,Y,N,N,Y,N,N,N,Y,Y,N,N,N,N,N,Y,Y,Y,N,N,N,N,-23.86474365,151.242095
BP Gladstone City,7283,3-5 Dawson Highway,GLADSTONE,QLD,4680,07 4972 3888,Y,Y,Y,N,Y,Y,N,N,N,N,N,N,N,,N,Y,Y,N,N,N,N,Y,-23.8599434,151.2451481
BP Glendambo Travel Stop,5333,Stuart Highway,GLENDAMBO,SA,5710,08 8672 1030,Y,N,Y,N,Y,Y,N,N,N,Y,N,N,N,N,N,Y,Y,Y,Y,N,N,N,-30.96779609,135.7597566
BP Glenella Store,8345,66 HILL END ROAD,Glenella,QLD,4740,07 4942 1200,Y,Y,N,N,Y,N,N,Y,N,Y,N,N,N,N,N,Y,N,Y,N,N,N,N,-21.11975885,149.1473069
BP Glenroy,3371,770 Pascoe Vale Road,Glenroy,VIC,3046,03 9304 2580,Y,Y,Y,N,Y,Y,Y,Y,Y,Y,Y,N,N,,Y,Y,Y,Y,N,N,N,N,-37.70786177,144.9167273
BP Glenview,4234,2632 GLASS HOUSE MOUNTAINS ROAD,GLENVIEW,QLD,4553,07 54945151,N,Y,Y,Y,N,N,Y,Y,Y,N,N,N,N,N,N,Y,Y,Y,Y,N,N,Y,-26.77278414,153.0395998
BP Glenwood Trading,6998,Lot 1 Arborten RD,GLENWOOD,QLD,4570,07 5485 7216,Y,Y,N,N,Y,N,N,N,Y,Y,N,N,N,,N,Y,N,Y,N,N,N,N,-25.93000486,152.60414
BP Glossop,9095,7 Anderson Tce,Glossop,SA,5344,08 8583 2018,Y,Y,N,N,Y,Y,N,N,Y,Y,N,N,N,N,N,Y,Y,N,N,N,N,N,-34.2705058,140.530184
BP Golden Gate,1896,438 Hannan Street,Kalgoorlie,WA,6430,08 9021 1737,Y,N,Y,N,Y,Y,Y,N,Y,Y,N,N,N,N,N,Y,Y,Y,N,N,N,N,-30.75282629,121.4659464
BP Goomalling,1813,42 Main St,Goomalling,WA,6460,08 9629 1245,Y,Y,Y,N,Y,Y,N,N,N,Y,N,N,N,N,N,Y,N,N,Y,N,N,N,-31.29161524,116.8333472
BP Goondi Bend,5509,117 Palmerston Drive,Innisfail,QLD,4860,07 4061 1033,Y,Y,Y,N,Y,N,N,N,Y,Y,N,N,N,N,N,Y,Y,N,N,N,N,N,-17.51834,146.0106871
BP Goonellabah,3036,339 Ballina Rd,Goonellabah,NSW,2480,02 6624 3647,N,Y,Y,Y,Y,Y,N,N,Y,Y,N,N,N,N,N,Y,Y,N,N,N,N,N,-28.8133823,153.3391512
BP Gracemere Servie Centre,4900,29 - 31 Laurie St,Gracemere,QLD,4702,07 4933 3777,Y,Y,N,N,Y,N,N,N,N,Y,N,N,N,N,N,Y,N,N,N,N,N,N,-23.43842641,150.4572385
BP Grafton,1186,58 Fitzroy St,Grafton,NSW,2460,02 6643 5155,N,Y,Y,Y,Y,N,N,N,Y,Y,N,N,N,N,N,Y,Y,N,N,N,N,N,-29.69345466,152.9373115
BP Grantville,3341,1514-1516 Bass Hwy,Grantville,VIC,3984,03 5678 8545,Y,Y,Y,N,Y,Y,Y,Y,Y,Y,N,N,N,N,N,Y,Y,Y,N,N,N,N,-38.40751338,145.5297643
BP Granville,5585,27 Woodville Road,Granville,NSW,2142,02 9637 5795,Y,Y,Y,N,Y,Y,Y,N,Y,Y,Y,N,N,Y,N,Y,N,Y,Y,N,N,N,-33.83068482,151.003919
BP Granville Maryborough,6964,107 Cambridge Street,Maryborough,QLD,4650,07 4123 1665,Y,Y,Y,N,Y,N,N,N,N,Y,N,N,N,,N,Y,Y,Y,N,N,N,N,-25.54100832,152.716878
BP Greenfield Park,6333,BP GREENFIELD PARK,GREENFIELD PARK,NSW,2176,02 9610 4554,Y,,Y,,Y,,,,,,,,,,,,,,,,N,,-33.87220352,150.8899168
BP Greenleigh,3212,131 Grimshaw St,Greensborough,VIC,3088,03 9435 4939,Y,Y,Y,N,Y,Y,Y,Y,Y,N,Y,N,Y,N,N,Y,Y,Y,N,N,N,N,-37.70432867,145.0999362
BP Greenwood,6171,19 Coolibah Dr,Greenwood,WA,6024,08 9447 5876,Y,Y,Y,N,N,Y,N,Y,N,Y,N,N,N,N,N,Y,Y,Y,N,N,N,Y,-31.83240829,115.801918
BP Grenfell,1193,83 Camp St,Grenfell,NSW,2810,02 6343 1749,Y,Y,N,N,Y,Y,N,N,Y,Y,N,N,N,N,N,Y,N,Y,N,N,N,N,-33.89581138,148.1649981
BP Grenfell Road,2336,11 Grenfell Rd,Cowra,NSW,2794,02 6342 1235,N,Y,Y,Y,Y,Y,N,N,Y,Y,N,N,N,N,Y,Y,Y,N,N,N,N,N,-33.83436743,148.6733845
BP Greystanes,2259,Cnr Merrylands & Kippax Sts,Greystanes,NSW,2145,02 9636 3152,Y,Y,Y,N,Y,N,N,N,Y,Y,N,N,N,N,N,Y,Y,Y,N,N,N,N,-33.82818005,150.938218
BP Grovedale,3720,134 Torquay Rd,Grovedale,VIC,3216,03 5241 1515,Y,Y,Y,N,Y,Y,Y,N,Y,Y,Y,N,N,Y,N,Y,Y,Y,N,N,N,N,-38.19255922,144.3429843
BP GULGONG,952,77 Medley Street,GULGONG,NSW,2852,02 6374 1196,Y,Y,N,N,Y,Y,N,N,Y,N,N,N,N,N,N,Y,N,N,N,N,N,N,-32.36671443,149.5322538
BP Gundagai North Service Centre,5578,Corner Of Annie Pyers Drive And Hume Highway,Gundagai,NSW,2722,02 6944 0555,Y,Y,Y,N,Y,N,Y,N,Y,Y,N,N,N,N,N,Y,Y,Y,Y,N,N,N,-35.03287502,148.108888
BP Gunnedah RDD,7194,Cnr Abbott & Barber Streets,GUNNEDAH,NSW,2380,02 67702021,Y,N,Y,,Y,,N,,N,,,,,,,,Y,,,,N,N,-30.9809788,150.2549757
BP Gunns Gully,3061,171 Narracan Dr,Moe,VIC,3825,03 5127 6266,Y,Y,Y,N,Y,Y,Y,Y,Y,Y,N,N,N,N,N,Y,y,Y,N,N,N,N,-38.18707356,146.2832352
BP Gympie Gateway,8349,295 Brisbane Rd,Gympie,QLD,4570,07 5482 9744,Y,N,Y,N,Y,N,Y,N,Y,Y,N,N,N,N,N,Y,y,Y,Y,N,N,N,-26.22117467,152.6860886
BP Haberfield,9518,95 - 97 Ramsey Rd,Haberfield,NSW,2045,02 9798 7375,N,N,Y,Y,Y,N,N,Y,N,Y,Y,N,N,Y,N,Y,Y,N,N,N,N,N,-33.88162536,151.1402004
BP Halifax,1594,1 Macrussan St,Halifax,QLD,4850,07 4777 7155,Y,N,Y,N,Y,Y,N,Y,Y,Y,N,N,N,N,N,Y,N,N,N,N,N,N,-18.58132897,146.28468
BP Halls Head,6170,2 Peelwood Pde,Halls Head,WA,6210,08 9581 1700,Y,Y,Y,N,N,N,Y,Y,Y,Y,N,N,N,N,N,Y,Y,N,N,N,N,Y,-32.55054149,115.7014981
BP Hamilton,549,Cnr Thompson & Lonsdale Sts,Hamilton,VIC,3300,03 5572 2267,Y,Y,Y,N,Y,Y,N,N,Y,Y,N,N,N,N,N,Y,Y,N,N,N,N,N,-37.74081152,142.0242127
BP Hampton Park,3379,7181 South Gippsland Hwy,Lyndhurst,VIC,3975,03 9702 8599,Y,Y,Y,N,Y,Y,Y,Y,N,Y,N,N,N,N,N,Y,Y,N,N,N,N,N,-38.03585734,145.2463548
BP Harcourt,5456,34 High Street,Harcourt,VIC,3453,03 5474 3130,Y,Y,Y,N,Y,Y,N,N,Y,Y,N,N,N,N,N,Y,N,N,N,N,N,N,-36.99723145,144.2616739
BP Hartwell,3235,1237 Toorak Rd,Hartwell,VIC,3125,03 9809 1705,Y,Y,N,N,N,Y,N,Y,Y,N,Y,Y,N,N,N,Y,Y,N,N,N,N,N,-37.84850065,145.0819659
BP Hastings Point,7266,1 Coast Rd,Hastings Point,NSW,2489,02 6676 1213,Y,Y,Y,N,Y,,N,,,,,,,,,,Y,,,,N,N,-28.36268945,153.5762108
BP Hawker,6828,40 Elder Tce,Hawker,SA,5434,08 8648 4086,Y,N,N,N,Y,N,N,N,N,Y,N,N,N,N,N,Y,N,N,N,N,N,N,-31.88937919,138.4240663
BP Healesville,6916,66 Maroondah Hwy,Healesville,VIC,3777,03 5962 4665,Y,N,Y,N,Y,Y,N,N,N,Y,N,N,N,,N,Y,Y,Y,N,N,N,N,-37.66215513,145.513275
BP Heatherhill,127,974 Heatherton Rd,Springvale South,VIC,3172,03 9546 1847,Y,N,Y,N,Y,Y,Y,Y,Y,Y,N,N,N,N,N,Y,Y,N,N,N,N,N,-37.9636548,145.1604029
BP Heathmont,3255,382 Canterbury Rd,Heathmont,VIC,3153,03 9729 5840,N,Y,Y,Y,Y,Y,Y,Y,Y,Y,Y,N,N,N,N,Y,Y,Y,N,N,N,N,-37.82918136,145.2781265
BP Helensvale,2972,2 Discovery Dr,Helensvale,QLD,4210,07 5573 3767,N,Y,Y,Y,N,Y,Y,Y,Y,Y,N,N,N,N,N,Y,Y,N,N,N,N,Y,-27.92205701,153.3371071
BP Hervey Bay,6958,Cnr Main Street and Boat Harbo,Hervey Bay,QLD,4655,07 4124 1922,Y,N,Y,N,N,Y,N,N,Y,Y,Y,N,N,Y,N,Y,Y,Y,N,N,N,Y,-25.28961754,152.8309186
BP Hervey Bay Airport,7190,1 William Dean Avenue,Urangan,QLD,4655,741946053,N,Y,Y,Y,Y,N,N,N,N,Y,N,N,N,,N,Y,Y,Y,N,N,N,N,-25.32282336,152.892499
BP Hexham,2231,Cnr Pacific Hwy & Old Maitland Rd,Hexham,NSW,2322,02 4964 8163,Y,Y,Y,N,Y,Y,N,N,N,Y,N,N,N,N,N,Y,Y,N,N,N,N,N,-32.84012073,151.6892421
BP High Street,8055,Cnr High & Miebusch Rds,Toowoomba,QLD,4350,07 4635 4639,Y,Y,Y,N,Y,N,N,N,Y,Y,N,N,N,N,N,Y,Y,N,N,N,N,N,-27.58532794,151.9779113
BP Highbluff,3234,359 Bluff Road,Hampton,VIC,3188,03 9598 7202,Y,Y,Y,N,Y,Y,Y,Y,Y,Y,Y,N,N,Y,N,Y,Y,Y,Y,N,N,N,-37.94567904,145.0218104
BP Highfields,5766,10538 New England Highway,HIGHFIELDS,QLD,4350,07 4630 8082,N,Y,Y,Y,N,Y,N,N,Y,Y,N,N,N,N,N,Y,Y,Y,Y,N,N,Y,-27.49339954,151.9506695
BP Highland Park,7044,Alexander Dr,Nerang,QLD,4211,07 5574 9066,N,Y,Y,Y,N,Y,Y,Y,Y,Y,N,N,N,N,N,Y,Y,Y,N,N,N,Y,-28.00419293,153.3238269
BP Hillcrest,5413,33 Middle Rd,Hillcrest,QLD,4118,07 3809 0922,Y,Y,Y,N,Y,Y,Y,Y,Y,Y,N,N,N,N,N,Y,Y,Y,N,N,N,N,-27.67467625,153.0281986
BP HILTON,7255,79-81 Sir Donald Bradman Drive,HILTON,SA,5033,08 8354 5421,Y,Y,Y,N,Y,Y,N,N,Y,Y,Y,Y,N,Y,N,Y,Y,Y,Y,N,N,Y,-34.93221342,138.5691482
BP Hobart Airport (TAS),1800,3 Holyman Avenue,Cambridge,TAS,7170,03 6248 4738,Y,Y,Y,N,Y,Y,Y,N,Y,Y,N,N,N,,N,Y,N,Y,N,N,N,N,-42.83218693,147.4913714
BP Hobart Terminal,7050,Selfs Point Road,New Point,TAS,7008,03 6228 6377,Y,Y,N,N,Y,N,Y,N,N,N,N,N,N,,N,N,N,N,N,N,n,N,-42.86673648,147.2859004
BP Holland Park,2550,779 Logan Rd,Holland Park,QLD,4121,07 3847 3399,Y,Y,Y,N,N,N,N,Y,Y,Y,N,N,N,N,N,Y,Y,Y,N,N,N,Y,-27.51435627,153.0547588
BP Home Hill,5706,46 Eighth Avenue,Home Hill,QLD,4806,,N,N,Y,Y,Y,N,Y,N,N,N,N,N,N,N,N,Y,y,N,N,N,N,N,-19.66727649,147.4154466
BP Hope Island,8133,69 - 71 Crescent Ave,Hope Island,QLD,4212,07 5530 1122,Y,Y,Y,N,Y,N,N,N,Y,Y,N,N,N,N,N,Y,y,Y,N,N,N,N,-27.87732488,153.374639
BP Hopetoun & Dca,415,95 Lascelles St,Hopetown,VIC,3396,03 5083 3323,Y,N,N,N,Y,N,N,N,N,N,N,N,N,N,Y,N,N,N,N,N,N,N,-35.72901761,142.3656123
BP Horsham,5438,4 Dimboola Road,Horsham,VIC,3400,03 5382 1842,Y,Y,Y,N,Y,Y,Y,N,Y,Y,N,N,N,N,N,Y,Y,Y,Y,N,N,N,-36.7109618,142.1979623
BP Horsley Park,1526,1642 The Horsley Dr,Horsley Park,NSW,2164,02 9620 2670,N,Y,Y,Y,Y,Y,Y,N,Y,Y,N,N,N,N,N,Y,N,Y,N,N,N,N,-33.84969181,150.9033935
BP Howard Springs,312,150 Whitewood Rd,Howard Springs,NT,835,08 8983 1037,Y,Y,N,N,Y,N,N,N,Y,Y,N,N,N,N,Y,Y,N,Y,N,N,N,N,-12.49728233,131.0316167
BP Hughesdale,7310,Cnr Poath and North Rd,Oakleigh,VIC,3166,03 9579 4000,Y,Y,Y,N,Y,Y,,Y,Y,Y,Y,,,Y,,Y,Y,Y,,,,N,-37.90812608,145.0741736
BP Huntingdale,6117,Cnr Warton & Matilda Rds,Huntingdale,WA,6110,08 9490 2912,Y,Y,Y,N,Y,Y,Y,Y,Y,Y,Y,N,Y,N,N,Y,Y,N,N,N,N,N,-32.07113218,115.9665169
BP Huonville,704,60 Main Rd,Huonville,TAS,7109,03 6264 3055,Y,Y,Y,N,Y,Y,Y,N,Y,Y,N,N,N,N,N,Y,Y,N,N,N,N,N,-43.02863609,147.049765
BP Indooroopilly,1451,71 Coonan St,Indooroopilly,QLD,4068,07 3378 2700,Y,Y,Y,N,Y,N,N,N,N,N,N,N,N,N,N,Y,Y,N,N,N,N,N,-27.49954947,152.975529
BP Ingham & Dca,1452,66 Townsville Rd,Ingham,QLD,4850,07 4776 2786,N,Y,Y,Y,Y,Y,N,N,Y,Y,N,N,N,N,Y,Y,Y,Y,N,N,N,N,-18.65370915,146.1546338
BP Inglewood (119 Albert St),717,119 Albert Street,Inglewood,QLD,4387,07 4652 1353,y,y,n,n,y,y,n,n,n,y,n,n,n,,n,y,n,n,n,n,n,n,-28.41859964,151.0765999
BP Innisfail,1101,Cnr Ernest & Lily Sts,Innisfail,QLD,4860,07 4061 8100,Y,Y,Y,N,Y,N,Y,N,Y,Y,N,N,N,N,N,Y,Y,Y,N,N,N,N,-17.52622913,146.0285544
BP Inverell DCA Shop Front,1047,313 Byron St,Inverell,NSW,2360,n/a,Y,Y,Y,n,Y,Y,n,n,n,n,n,n,n,,n,Y,n,n,n,n,n,n,-29.76779532,151.1203051
BP Inverloch,1346,25 Williams St,Inverloch,VIC,3996,03 5674 1442,Y,n,Y,n,Y,Y,n,n,Y,Y,n,n,n,,n,Y,Y,Y,n,n,n,n,-38.63165851,145.7293946
BP Invermay,605,28-32 Invermay Road,Launceston,TAS,7250,03 6331 7226,Y,Y,Y,N,Y,Y,Y,N,Y,Y,N,N,N,N,N,Y,Y,Y,N,N,N,N,-41.43108996,147.1392863
BP Jabiru DSS,7289,Lakeside Drive,JABIRU,NT,886,08 8979 2001,Y,Y,Y,N,Y,N,N,N,N,Y,N,N,N,,N,Y,N,Y,N,N,N,N,-12.66806539,132.8375372
BP Jacaranda Avenue,4595,469 Kingston Rd,Kingston,QLD,4114,07 3208 0104,Y,Y,Y,N,Y,N,Y,Y,Y,Y,N,N,N,N,N,Y,Y,Y,N,N,N,N,-27.65855749,153.1165953
BP Jamison,1109,Cnr Redfern & Bowman Sts,Macquarie,ACT,2614,02 6251 6308,Y,Y,Y,N,Y,Y,N,Y,Y,Y,N,N,N,N,N,Y,Y,N,N,N,N,N,-35.25552597,149.0697089
BP Jamison Town,2967,126 - 130 Mulgoa Rd,Penrith,NSW,2750,02 4733 3913,N,Y,Y,Y,Y,Y,Y,N,Y,Y,Y,N,N,Y,N,Y,Y,Y,N,N,N,N,-33.76956555,150.6763146
BP Jerilderie,3044,13 Southy St,Jerilderie,NSW,2716,03 5886 1378,Y,Y,Y,N,Y,Y,Y,N,Y,Y,N,N,N,N,N,Y,y,Y,Y,N,N,N,-35.36083562,145.7192982
BP Jerrys Plains,5520,Lot 2 Pagan Street,Jerrys Plains,NSW,2330,02 6576 4155,Y,Y,N,N,Y,N,N,N,n,Y,N,N,N,,N,Y,N,N,N,N,n,N,-32.49685075,150.9107257
BP Jindabyne,1221,8 Kosciusko Rd,Jindabyne,NSW,2627,02 6456 2127,N,N,Y,Y,Y,Y,N,N,Y,Y,N,N,N,N,N,Y,Y,Y,N,N,N,N,-36.41480933,148.6176505
BP John Eyre Motel (DSS),1878,Eyre Highway,CAIGUNA,WA,6443,08 9039 3459,Y,Y,Y,N,Y,Y,Y,N,N,Y,N,N,N,N,N,Y,Y,Y,Y,N,N,N,-32.31857087,125.0943891
BP Johnston Street,855,69 Johnston St,Southport,QLD,4215,07 5527 0022,Y,Y,Y,N,Y,N,N,Y,Y,Y,N,N,N,N,N,Y,Y,Y,N,N,N,N,-27.96499002,153.4038964
BP Julia Creek Roadhouse,1691,85 Burke Street,JULIA CREEK,QLD,4823,07 4746 7178,Y,Y,Y,,Y,Y,,,Y,Y,,,,,,Y,N,Y,Y,,,,-20.65775215,141.7397258
BP Jurien Bay,6082,110 Bashford St,Jurien Bay,WA,6516,08 9652 1444,Y,N,Y,N,Y,N,N,N,N,N,N,N,N,N,N,Y,Y,N,N,N,N,N,-30.31078287,115.036307
BP Kables OPT,2695,76 Piesley St,Orange,NSW,2800,02 6362 6461,N,Y,N,Y,Y,N,N,N,Y,N,N,N,N,N,Y,Y,N,N,N,N,N,N,-33.29011286,149.1025313
BP Kadina,9170,19 Frances Tce,Kadina,SA,5554,08 8821 4753,Y,Y,Y,N,Y,Y,Y,Y,Y,Y,N,N,N,N,N,Y,Y,N,N,N,N,N,-33.9645161,137.7136661
BP Kalbarri,6668,Lot 13 Clotsworthy St,Kalbarri,WA,6536,08 9937 1425,Y,N,Y,N,Y,Y,N,N,N,Y,N,N,N,N,N,Y,N,N,N,N,N,N,-27.70207643,114.1695748
BP Kalgoorlie Truckstop,4112,Celebration Rd,Boulder,WA,6432,08 9093 0266,Y,N,Y,N,Y,Y,Y,N,Y,Y,N,N,N,N,N,Y,Y,N,Y,N,N,N,-30.78198166,121.4883576
BP Kambalda East,6233,Cnr Kalgoorie & Emu Rocks Rd,Kambalda East,WA,6442,08 9027 1340,Y,N,Y,N,Y,Y,N,N,Y,Y,N,N,N,N,N,Y,Y,Y,N,N,N,N,-31.20503714,121.639338
BP Kangaroo Flat,72,172 High St,Kangaroo Flat,VIC,3555,03 5447 2930,Y,Y,Y,N,Y,Y,Y,N,Y,Y,N,N,N,N,N,Y,Y,Y,N,N,N,N,-36.7983098,144.2434759
BP Kapunda,9129,1 Mildred St,Kapunda,SA,5373,08 8566 3880,Y,N,Y,N,Y,Y,N,N,Y,Y,N,N,N,N,N,Y,Y,Y,N,N,N,N,-34.33910694,138.9171018
BP Kapunda Main St,6965,122 Main St,Kapunda,SA,5373,08 566 2312,Y,Y,Y,N,Y,Y,N,Y,Y,Y,N,N,N,,N,Y,Y,Y,Y,N,N,N,-34.34563505,138.9121191
BP Kardinya,6207,88 Gilbertson Rd,Kardinya,WA,6163,08 9337 1463,Y,Y,Y,N,Y,Y,Y,Y,Y,Y,N,N,N,N,N,Y,Y,N,N,N,N,N,-32.06904723,115.8199522
BP Karratha,1899,Balmoral Rd,Karratha,WA,6714,08 9185 1833,Y,Y,N,N,Y,Y,N,N,Y,Y,N,N,N,N,N,Y,Y,N,N,N,N,N,-20.73601083,116.8425802
BP Katherine,9353,6 Katherine Tce,Katherine,NT,850,08 8971 9924,Y,Y,N,N,Y,Y,Y,N,N,Y,N,N,N,N,N,Y,N,Y,Y,N,N,N,-14.46699549,132.2649014
BP Katoomba,3304,199 Great Western Highway,KATOOMBA,NSW,2780,02 4782 1741,Y,Y,Y,N,Y,Y,Y,N,Y,Y,N,N,N,N,N,Y,Y,Y,N,N,N,N,-33.70695489,150.3168748
BP Kawana,4608,Nicklin Way & Wyanda Dr,Bokarina,QLD,4575,07 5493 1670,Y,Y,Y,N,Y,N,N,N,Y,Y,N,N,N,N,N,Y,Y,Y,N,N,N,N,-26.73088022,153.1291431
BP Kealba,5723,100 Sunshine Avenue,Kealba,VIC,3021,03 9310 7766,Y,Y,Y,N,Y,Y,Y,Y,Y,Y,N,N,N,,N,Y,Y,Y,N,N,N,N,-37.74174114,144.8262413
BP Kearney Springs,7911,823 Ruthven St,Toowoomba,QLD,4350,07 4636 1399,N,Y,Y,Y,N,Y,Y,Y,Y,Y,Y,N,Y,N,N,Y,Y,Y,N,N,N,Y,-27.58881654,151.9484789
BP Keilor Park Drive,5764,Corner Of Fullarton Road And Keilor Park Drive,Keilor Park,VIC,3042,03 9336 0220,N,Y,Y,Y,Y,Y,Y,Y,Y,Y,Y,N,N,Y,N,Y,Y,Y,Y,N,N,N,-37.72451254,144.849834
BP Keith,5302,14 Dukes Hwy,Keith,SA,5267,08 8755 3181,Y,Y,Y,N,Y,Y,N,N,Y,Y,N,N,N,N,N,Y,N,Y,Y,N,N,N,-36.10507535,140.3623439
BP Keith Southbound,7237,Cnr Riddich & Dukes Highway,KEITH,SA,5267,08 8755 1700,Y,Y,N,N,,Y,,N,Y,N,N,N,N,,N,Y,,N,N,N,N,,-36.08571755,140.3424525
BP Kelmscott,5496,2907 Albany Highway,Kelmscott,WA,6111,08 9390 5433,Y,Y,Y,N,Y,Y,Y,Y,Y,Y,Y,N,N,Y,N,Y,Y,Y,N,N,N,N,-32.11846465,116.0166507
BP Kemps Creek,7205,Lot 5 1443 Elizabeth Drive,Kemps Creek,NSW,2178,02 9826 1013,Y,Y,Y,,Y,Y,Y,,,Y,,,,,,,,Y,,,N,N,-33.87958199,150.7914321
BP Kennedy Store,1735,56115 Bruce Highway,Kennedy,QLD,4849,07 4066 0135,y,n,n,n,y,n,n,n,n,y,n,n,n,,n,n,n,n,n,n,n,n,-18.20491834,145.9555003
BP Kerang (Bendigo Rd),5803,90 Bendigo Road,Kerang,VIC,3579,03 5450 3333,Y,Y,n,n,Y,Y,n,n,Y,Y,n,n,n,n,n,Y,Y,n,Y,n,n,n,-35.73864227,143.9188134
BP Kewdale Truckstop,2498,549 Abernethy Rd,Kewdale,WA,6105,08 9353 6945,Y,Y,Y,N,Y,Y,Y,N,Y,Y,N,N,N,N,Y,Y,N,Y,Y,Y,N,N,-31.98191486,115.9716626
BP Kilmore,5457,102 Sydney Street,Kilmore,VIC,3764,03 5782 1418,Y,N,Y,N,Y,Y,N,Y,Y,Y,N,N,N,N,N,Y,N,N,Y,N,N,N,-37.28733058,144.9494153
BP Kingaroy,1458,114 - 118 Kingaroy St,Kingaroy,QLD,4610,07 4162 1928,Y,N,Y,N,Y,N,N,N,Y,Y,N,N,N,N,N,Y,Y,Y,N,N,N,N,-26.5426357,151.8394784
BP Kingscliff,1099,76 Marine Pde,Kingscliff,NSW,2487,02 6674 1461,Y,Y,N,N,Y,N,N,N,Y,Y,N,N,N,N,N,Y,N,N,N,N,N,N,-28.25672763,153.5778729
BP Kingston,628,Cnr Channel Hwy & John St,Kingston,TAS,7050,03 6229 5051,Y,Y,Y,N,Y,Y,Y,N,Y,Y,N,N,N,N,N,Y,Y,N,N,N,N,N,-42.97561191,147.3090663
BP Kingston,3082,1 Princess Hwy,Kingston Se,SA,5275,08 8767 2404,Y,N,Y,N,Y,Y,N,N,Y,Y,N,N,N,N,N,Y,Y,Y,Y,N,N,N,-36.8267594,139.8638027
BP Kingsway,65,313 KINGS WAY,SOUTH MELBOURNE,VIC,3205,03 9690 5250,Y,Y,Y,N,Y,Y,Y,N,Y,Y,N,N,N,N,N,Y,Y,Y,N,N,N,N,-37.83397499,144.9690093
BP Kirrawee,883,Corner Of Princes Highway And Oak Road,Kirrawee,NSW,2232,02 9521 4039,N,Y,Y,Y,Y,N,Y,N,Y,Y,N,N,N,N,N,Y,Y,Y,N,N,N,N,-34.03213856,151.0715284
BP Kirwan,1459,170 Thuringowa Dr,Kirwan,QLD,4817,07 4773 4622,Y,Y,Y,N,Y,N,Y,N,Y,Y,N,N,N,N,N,Y,Y,Y,N,N,N,N,-19.30217071,146.7351098
BP Kogarah,7323,69 Princes Highway,Kogarah,NSW,2217,02 9553 4444,Y,Y,Y,N,Y,N,N,N,N,N,N,N,N,N,N,Y,N,N,N,N,N,N,-33.96326768,151.1371244
BP Kookas Central,1658,Bowen & Arthur Sts,Roma,QLD,4455,07 4622 3399,Y,N,Y,N,Y,Y,Y,N,Y,Y,N,N,N,N,N,Y,Y,N,Y,N,N,N,-26.57376441,148.7894354
BP Koondoola,5583,Cnr Koondoola and Burbridge Avenue,Koondoola,WA,6064,08 9342 4422,Y,Y,Y,N,Y,Y,N,Y,Y,Y,N,N,N,N,N,Y,Y,Y,N,N,N,N,-31.84214557,115.8580583
BP Korrumburra,1018,Cnr King & Elizabeth Sts,Korumburra,VIC,3950,03 5658 1784,Y,Y,Y,N,Y,Y,Y,Y,Y,Y,Y,N,N,Y,N,Y,y,Y,N,N,N,N,-38.42980956,145.8218116
BP Korumburra Commercial,6985,2 Commercial St,Korumburra,VIC,3950,03 5655 1668,Y,Y,Y,N,Y,Y,N,Y,Y,Y,N,N,N,,N,Y,Y,N,N,N,N,N,-38.4331359,145.8250242
BP Kununurra,1956,Bandicoot Drive,Kununurra,WA,6743,08 9169 1799,Y,Y,N,N,Y,N,N,N,Y,Y,N,N,N,N,N,Y,Y,Y,N,N,N,N,-15.78210366,128.735666
BP Kununurra Dep DCA Shop Front,6667,LOT 2257 Victoria Highway,KUNUNURRA,WA,6743,08 9168 2087,Y,Y,Y,N,Y,N,N,N,N,Y,N,N,N,N,Y,Y,Y,N,N,N,N,N,-15.80274982,128.8635828
BP KURABY,5871,200 Compton Road,KURABY,QLD,4112,07 3423 0599,Y,Y,Y,N,Y,N,Y,N,N,Y,N,N,N,N,N,Y,Y,Y,N,N,N,N,-27.61772341,153.0940259
BP Kuranda,8063,3 Rob Vievers Dr,Kuranda,QLD,4872,07 4093 9400,Y,N,Y,N,Y,N,N,N,Y,Y,N,N,N,N,N,Y,Y,Y,N,N,N,N,-16.82177615,145.6331715
BP Kurmond,2980,501 Bells Line Of Rd,Kurmond,NSW,2757,02 4573 2869,Y,Y,Y,N,Y,Y,Y,Y,Y,Y,N,N,N,N,N,Y,Y,Y,N,N,N,N,-33.55110054,150.691187
BP Kyabram,875,10 Allan St,Kyabram,VIC,3620,03 5853 1750,Y,Y,Y,N,Y,Y,N,N,Y,Y,N,N,N,N,N,Y,y,N,N,N,N,N,-36.31359983,145.0330704
BP Kyneton,5458,55 High Street,Kyneton,VIC,3444,03 5422 1622,Y,Y,Y,N,Y,Y,N,Y,Y,Y,N,N,N,N,N,Y,N,Y,N,N,N,N,-37.25021372,144.4557681
BP Kyogle,5436,13 Summerland Way,Kyogle,NSW,2474,02 6632 1706,Y,Y,N,N,Y,Y,N,Y,Y,Y,N,N,N,N,N,Y,Y,Y,N,N,N,N,-28.61818533,153.0035931
BP Lagana Bros,5340,Barossa Valley Highway,Lyndoch,SA,5351,n/a,Y,Y,N,n,Y,Y,n,n,n,Y,n,n,n,,n,n,n,n,n,n,n,n,-34.59348494,138.8904489
BP Lake King,6746,164 Hyden lake King Road,Lake King,WA,6356,08 9865 1221,Y,N,N,N,Y,N,Y,,N,N,N,N,N,,Y,N,Y,N,N,N,N,N,-33.04319596,119.6366448
BP Lake Munmorah,6953,335 Pacific Highway,Lake Munmorah,NSW,2259,02 4358 1606,Y,n,Y,n,Y,Y,Y,Y,Y,Y,n,n,n,,n,Y,Y,n,n,n,n,n,-33.19011264,151.567871
BP Landsborough Central,1622,Cnr Railway & Caloundra St,Landsborough,QLD,4550,07 5494 1622,Y,Y,Y,N,Y,N,N,Y,Y,Y,N,N,N,N,N,Y,N,Y,N,N,N,N,-26.80973153,152.9673499
BP Langford,5378,234 Nicholson Road,Langford,WA,6147,08 9258 3444,Y,Y,Y,N,Y,Y,Y,Y,Y,Y,Y,N,N,N,N,Y,Y,Y,N,N,N,N,-32.04720518,115.9323963
BP Langwarrin,3381,240 Cranbourne Frankston Road,LANGWARRIN,VIC,3910,03 9789 4887,Y,Y,Y,N,Y,Y,N,Y,Y,Y,N,N,N,N,N,Y,Y,Y,N,N,N,N,-38.15013085,145.1963548
BP Lansvale,2296,115 - 119 Hume Hwy,Lansvale,NSW,2166,02 9727 6591,N,Y,Y,Y,Y,Y,Y,Y,Y,Y,Y,N,N,Y,N,Y,Y,Y,N,N,N,N,-33.89422192,150.9582821
BP Lara,1234,1 Forest Rd,Lara,VIC,3212,03 5282 1213,Y,N,Y,N,Y,Y,N,Y,Y,Y,N,N,N,N,N,Y,Y,Y,N,N,N,N,-38.02296496,144.3968744
BP Latrobe,1460,49 Lytton Rd,East Brisbane,QLD,4169,07 3391 1973,Y,Y,Y,N,N,Y,Y,N,Y,Y,N,N,N,N,N,Y,Y,Y,N,N,N,Y,-27.47942872,153.0435183
BP Lauderdale,7051,534 South Arm Rd,Lauderdale,TAS,7021,03 6248 1026,Y,Y,Y,N,Y,N,N,Y,Y,Y,N,N,N,N,N,Y,Y,N,N,N,N,N,-42.91534592,147.4859305
BP Launceston,3221,31 Wellington St,Launceston,TAS,7250,03 6334 5058,Y,Y,Y,N,Y,Y,Y,N,Y,N,N,N,N,N,N,Y,Y,Y,N,N,N,N,-41.44007812,147.1367564
BP Laverton,4744,15 Fitzgerald Rd,Laverton North,VIC,3026,03 9369 6858,Y,Y,Y,N,Y,Y,Y,N,N,Y,N,N,N,N,N,Y,Y,Y,Y,Y,N,N,-37.84194325,144.7815679
BP Lawnton,2196,823 Gympie Road,Lawnton,QLD,4501,07 3285 6336,Y,Y,Y,N,Y,N,N,Y,Y,Y,N,N,N,,N,Y,Y,Y,N,N,N,N,-27.28153757,152.9830062
BP Leongatha,6984,7 Anderson Street,Leongatha,VIC,3953,03 5662 2834,y,y,y,n,y,y,n,y,y,y,n,n,n,,n,y,Y,n,n,n,n,n,-38.47375797,145.9453878
BP Leongatha Bair St,3615,95 Bair St,Leongatha,VIC,3953,03 5662 2217,Y,Y,Y,n,Y,Y,n,n,Y,Y,n,n,n,,n,Y,Y,Y,n,n,n,n,-38.47909687,145.9478088
BP Leopold,184,694 Ballarine Highway,Leopold,VIC,3224,03 5250 2495,Y,Y,Y,N,Y,Y,Y,N,Y,Y,Y,Y,N,N,N,Y,Y,Y,Y,N,N,N,-38.1881993,144.4581214
BP Leppington,6935,1389 Camden Valley Way,Leppington,NSW,2179,02 9606 6225,N,Y,Y,Y,Y,N,N,N,Y,Y,N,N,N,,N,Y,Y,Y,N,N,N,N,-33.97059958,150.8128264
BP LILYDALE,7248,87-89 Warburton Hwy,LILYDALE,VIC,3140,03 9735 5308,Y,Y,Y,N,Y,Y,N,,,,,,,,,,Y,,,,N,N,-37.75746052,145.3893524
BP Linden Park,5226,460 Greenhill Rd,Linden Park,SA,5065,08 8379 0127,Y,Y,N,N,N,Y,N,N,Y,Y,Y,N,N,Y,N,Y,Y,N,N,N,N,Y,-34.93871692,138.6511094
BP Lindisfarne,638,170 East Derwent Hwy,Lindisfarne,TAS,7015,03 6243 8573,Y,Y,Y,N,Y,Y,Y,N,Y,Y,N,N,N,N,N,Y,Y,Y,N,N,N,N,-42.84636564,147.3598719
BP Lindum,1461,226 Sibley Rd,Wynnum West,QLD,4178,07 3396 3291,Y,Y,Y,Y,Y,N,N,Y,Y,Y,Y,,N,Y,,Y,,Y,,,N,N,-27.44306298,153.1437856
BP Little River (Geelong Bound),4117,Cnr Princess Hwy & Posties Rd,Little River,VIC,3211,03 5283 1660,Y,Y,Y,N,Y,Y,Y,N,Y,Y,N,N,N,N,N,Y,Y,Y,Y,Y,N,N,-37.96315462,144.5005699
BP Little River (Melb. Bound),4134,Cnr Pricess Hwy & Hughes Rd,Little River,VIC,3211,03 5283 1585,Y,Y,Y,N,Y,Y,Y,N,Y,Y,N,N,N,N,N,Y,Y,Y,Y,Y,N,N,-37.99726894,144.4941231
BP Liverpool,6951,69 Hoxton Park Road,Liverpool,NSW,2170,02 9821 2222,N,Y,Y,Y,Y,Y,N,N,Y,Y,N,N,N,,N,Y,Y,Y,N,N,N,N,-33.92751049,150.9096842
BP Loftus,899,127 Loftus avenue,loftus,NSW,2232,02 9521 5017,N,Y,Y,Y,Y,N,Y,N,Y,Y,Y,N,N,Y,N,Y,Y,Y,N,N,N,N,-34.04663883,151.0512444
BP Logan Rd,6989,3077 Logan Rd,Underwood,QLD,4119,07 3341 3580,Y,Y,Y,N,Y,Y,N,Y,Y,Y,N,N,N,,N,Y,Y,Y,N,N,N,N,-27.59882675,153.1092108
BP Logan Village,1971,111 - 113 Albert St,Logan Village,QLD,4207,07 5546 3169,Y,Y,Y,N,N,Y,Y,N,N,N,N,N,N,N,N,Y,Y,N,N,N,N,Y,-27.76611923,153.1086539
BP Logandale,950,141 Beenleigh Redland Rd,Loganholme,QLD,4129,07 3287 7811,Y,Y,Y,N,Y,Y,Y,Y,Y,Y,N,N,N,N,N,Y,Y,Y,N,N,N,N,-27.67052404,153.2010475
BP Long Gully,73,187 Eaglehawk Rd,Long Gully,VIC,3550,03 5441 2977,Y,Y,Y,N,Y,Y,Y,N,Y,Y,N,N,N,N,N,Y,Y,Y,N,N,N,N,-36.74426118,144.2578732
BP Longford OPT,7180,21 WELLINGTON STREET,LONGFORD,TAS,7301,,Y,,Y,,Y,,,,,,,,,,,,,,,,,,-41.5893245,147.1203959
BP Longwarry Inbound,5980,200 Princes Fwy,Longwarry North,VIC,3816,03 5629 9077,Y,Y,Y,N,Y,Y,Y,N,Y,Y,N,N,N,N,N,Y,N,Y,Y,Y,N,N,-38.08744158,145.7880055
BP Longwarry Outbound,5958,200 Princes Fwy,LONGWARRY NORTH,VIC,3816,03 5629 9102,Y,Y,Y,N,Y,Y,Y,N,Y,Y,N,N,N,N,N,Y,Y,Y,Y,Y,N,N,-38.08743864,145.7880035
BP Lorne,3782,74 Mountjoy Parade,Lorne,VIC,3232,03 5289 2721,Y,Y,Y,N,Y,Y,N,N,Y,Y,N,N,N,N,N,Y,Y,Y,N,N,N,N,-38.53878128,143.9749108
BP Lowe Street,1303,2 - 4 Lowe St,Queanbeyan,ACT,2620,02 6297 5032,N,Y,Y,Y,Y,N,Y,N,Y,N,N,N,N,N,N,Y,Y,Y,N,N,N,N,-35.35261607,149.2313095
BP Loxton,5919,French Road,Loxton,SA,5333,08 8584 7418,Y,N,Y,N,Y,Y,N,N,Y,Y,N,N,N,N,N,Y,Y,Y,N,N,N,N,-34.42733552,140.6089074
BP Ludmilla,8250,25 Bagot Rd,Ludmilla,NT,820,08 8981 2501,Y,Y,Y,N,Y,N,Y,N,Y,Y,N,N,N,N,N,Y,N,Y,N,N,N,N,-12.4268319,130.8559998
BP Lugarno,4756,1046 Forrest  Rd,Lugarno,NSW,2210,02 9534 6555,Y,Y,N,N,Y,N,N,N,Y,Y,N,N,N,,N,Y,N,Y,N,N,,N,-33.98686003,151.0481915
BP Lyndhurst Store (DSS),5327,1 Main Rd,Lyndhurst,SA,,08 8675 7782,Y,N,N,N,Y,Y,N,N,N,Y,N,N,N,,N,Y,N,N,n,N,N,N,-30.28762997,138.3493903
BP Maclean,1249,Pacific Hwy,Maclean,NSW,2463,02 6645 2050,Y,Y,Y,N,Y,Y,N,N,Y,Y,N,N,N,N,N,Y,Y,N,N,N,N,N,-29.45254242,153.2198259
BP Macs Truckstop,1625,Bruce Hwy,Mackay,QLD,4740,07 4956 4218,N,Y,Y,Y,Y,N,Y,N,Y,Y,N,N,N,N,N,Y,Y,Y,Y,N,N,N,-21.20587728,149.146741
BP Maida Vale,6180,269 Kalumunda Rd,Maida Vale,WA,6057,08 9454 7716,Y,N,Y,N,N,Y,Y,N,Y,N,N,N,N,N,N,Y,Y,Y,N,N,N,Y,-31.95349009,116.024039
BP Maitland,6975,Lot 2 Port Victoria Road,Maitland,SA,5573,08 8832 2333,Y,Y,Y,n,Y,Y,n,N,Y,Y,n,n,n,,n,Y,Y,N,Y,n,n,n,-34.37960207,137.6693553
BP Malak,730,5102 Chambers Cres,Malak,NT,812,08 8945 0567,Y,Y,Y,N,Y,N,N,N,Y,Y,N,N,N,N,N,N,N,Y,N,N,N,N,-12.39777884,130.9059075
BP Malvern,559,1367 High St,Malvern,VIC,3144,03 9822 4202,Y,Y,Y,N,Y,Y,Y,N,Y,Y,N,N,N,N,N,Y,Y,Y,Y,N,N,N,-37.85798698,145.0406601
BP Manilla,7243,301-302 Tamsworth Rd,MANILLA,NSW,2346,02 6785 1563,Y,Y,Y,,Y,,N,,,,,,,,,,,,,,N,N,-30.7598312,150.7331565
BP Manjimup,1908,96 Giblet St,Manjimup,WA,6258,08 9771 1154,Y,N,Y,N,Y,N,N,N,Y,Y,N,N,N,N,N,Y,Y,N,N,N,N,N,-34.24183826,116.1455946
